Street_bounding,Name_bounding,Address_bounding,Rating_bounding,Place ID,Latitude_bounding,Longitude_bounding,flag
liberty ave,Emilichka,"4614 Liberty Avenue, Pittsburgh",5.0,ChIJ--McpzzzNIgR7A8dIGZBu9c,40.4621346,-79.95043059999999,bounding_only
42nd st,Earthview Studios,"605 Pittview Avenue, Pittsburgh",5.0,ChIJ-4Dzi6_zNIgRZy4RRW1g_II,40.4738113,-79.9746771,consolidated
49th St,Jean-Marc Chatellier's French Bakery,"213 North Avenue, Millvale",4.8,ChIJ-5-3DKjzNIgRmnRq71bLZuE,40.48123099999999,-79.974795,broad_filled
penn ave,Polish Eagles Society,"208 Fisk Street, Pittsburgh",4.9,ChIJ-725AE3yNIgRaKfBaozVOKc,40.4689862,-79.9613179,consolidated
penn ave,York Commons,"4003 Penn Avenue, Pittsburgh",3.5,ChIJ-SRFTEnyNIgRh2GuecKy29c,40.46574820000001,-79.9575601,consolidated
50th St,Curated Flame,"505 Grant Avenue, Millvale",4.9,ChIJ-WdLXWPzNIgRcT6R7buS6Y4,40.4804326,-79.9742952,broad_filled
liberty ave,Industrius CFO,"4117 Liberty Avenue, Pittsburgh",,ChIJ-Yu9kUjyNIgRDuG3wqPAzZ8,40.46367969999999,-79.95377049999999,bounding_only
liberty ave,Be The Boss,"4117 Liberty Avenue, Pittsburgh",,ChIJ-Yu9kUjyNIgRXyu2uj0rRV0,40.463579,-79.953955,bounding_only
liberty ave,eCollect Plus,"804 Fayette Street, Conshohocken",3.0,ChIJ-Yu9kUjyNIgRnRbcZPZDSz8,40.4637138,-79.9538054,bounding_only
Plummer St,Ceney Electronics,"318 Grant Avenue, Millvale",4.2,ChIJ-Zem-KjzNIgR8LmP3mZdmjM,40.479776,-79.97272319999999,broad_filled
penn ave,Phoenix Boutique,"3627 Butler Street, Pittsburgh",4.7,ChIJ-_-tprTzNIgRvqYUNU98OK8,40.4661902,-79.9649519,consolidated
34th St,Pacific Pride Commercial Fueling,"3225 Smallman Street, Pittsburgh",4.3,ChIJ-_hqBLbzNIgRC9-VHL_nA-A,40.46226590000001,-79.9700751,broad_filled
penn ave,"Dr. Gregory N. Smith, MD","3937 Butler Street, Pittsburgh",,ChIJ-cG-xEzyNIgRaIHKdqAuMr8,40.4689045,-79.9634657,consolidated
penn ave,"Tara Clemente, MSW","3937 Butler Street, Pittsburgh",,ChIJ-cG-xEzyNIgRgDufet11Z4k,40.4689045,-79.9634657,consolidated
penn ave,Lawrenceville Family Health Ct: Yuan David T MD,"3937 Butler Street, Pittsburgh",,ChIJ-cG-xEzyNIgRryE9fwcDv7g,40.4689006,-79.9634566,consolidated
penn ave,UPMC St. Margaret Lawrenceville Family Health Center,"3937 Butler Street, Pittsburgh",3.4,ChIJ-cG-xEzyNIgRzy312BgaCN0,40.4688796,-79.9634715,consolidated
liberty ave,"Beverly J. Gruarin, DPM","4732 Liberty Avenue, Pittsburgh",3.7,ChIJ-cK6FEfyNIgR8PUiV3wyTag,40.46138699999999,-79.94888929999999,bounding_only
liberty ave,Family Foot Center,"4732 Liberty Avenue, Pittsburgh",3.1,ChIJ-cK6FEfyNIgRwo5OIug-r5M,40.46134,-79.94895,bounding_only
39th St,Topographic & Geologic Survey,"500 Waterfront Drive, Pittsburgh",,ChIJ-e-s6bnzNIgRYpKj9SWVW_4,40.46618839999999,-79.97638429999999,broad_filled
Plummer St,Lawrence Locksmith Shop,"316 Grant Avenue, Pittsburgh",1.0,ChIJ-fWjXi_zNIgR051nmPlnsA4,40.47976169999999,-79.9726717,broad_filled
penn ave,Penn Ave + 39th St,United States,5.0,ChIJ-wZzvkvyNIgRgu3cnqvUhec,40.464779,-79.960281,consolidated
46th St,GPSA INC,"112 Lincoln Avenue, Pittsburgh",4.5,ChIJ-xRtxxbzNIgRvO-5ETxUn98,40.478895,-79.96869199999999,broad_filled
penn ave,Millie's Homemade Ice Cream,"3803 Butler Street, Pittsburgh",4.8,ChIJ-y1mRQ_zNIgR0jQVTxnHryg,40.4670682,-79.96431439999999,consolidated
butler st,Precise Grinding,"140 46th Street, Pittsburgh",,ChIJ-y5bEvLzNIgRY6pnYs2PiCA,40.47408610000001,-79.9609721,bounding_only
34th St,PeopleReady,"19 35th Street, Pittsburgh",3.1,ChIJ0-QK4C4uNIgRka4iiu5OzR4,40.4660929,-79.9705912,broad_filled
liberty ave,Bloomfield Park,"408 Ella Street, Pittsburgh",4.4,ChIJ00zxaEjyNIgRAmIQw4o3bx4,40.46288860000001,-79.95391219999999,consolidated
butler st,Renaissance & Baroque,"100 43rd Street, Pittsburgh",,ChIJ03YddW7yNIgRhFTGUs8xFQ0,40.4728608,-79.9638889,consolidated
46th St,United States Postal Service,"205 Lincoln Avenue, Millvale",2.4,ChIJ073rnanzNIgR20njvRuMhDk,40.4794674,-79.9707229,broad_filled
penn ave,Santurbane Photography,"4018 Penn Avenue, Pittsburgh",,ChIJ07HCR6jzNIgRqpgRNIT8ov4,40.4651819,-79.9571503,bounding_only
44th St,East Ohio St + Grant,United States,,ChIJ07RG3avzNIgRmDZgzJzUBG0,40.478296,-79.96892000000001,broad_filled
52nd st,Veterans Place of Washington Boulevard,"25 Bateman Street Apartment 4, Pittsburgh",,ChIJ083apoDzNIgR96ZHfxzZKng,40.4806974,-79.97856879999999,consolidated
butler st,Parker Button Co,"4603 Butler Street, Pittsburgh",4.2,ChIJ09YbR2nxNIgRHcxJerzONtI,40.4730732,-79.9589182,consolidated
butler st,Clarissa Boutique,"4603 Butler Street, Pittsburgh",4.9,ChIJ09YbR2nxNIgRampHzOVXKT0,40.4730732,-79.9589182,consolidated
liberty ave,Bloomfield Lofts,"Edmond Street, Pittsburgh",,ChIJ0R5bN0fyNIgRPwagLfkMFEE,40.4612999,-79.94781429999999,bounding_only
liberty ave,Clement Way Graffiti Alley,"Clement Way, Pittsburgh",5.0,ChIJ0RD2-WfzNIgRl4pA4Auo4S4,40.463838,-79.95373579999999,bounding_only
penn ave,Burghers Brewing Company Lawrenceville Tap House,"3601 Butler Street, Pittsburgh",4.2,ChIJ0TkalrTzNIgR3WQ1VOvp8Jg,40.46550839999999,-79.9653805,bounding_only
butler st,Mix Candle Co Lawrenceville,"4409 Butler Street, Pittsburgh",4.7,ChIJ0UHfElLyNIgR4lBVX8eXhoc,40.4718971,-79.9597418,consolidated
48th St,Mr. Smalls Recording and Mastering,"122 Butler Street, Pittsburgh",4.6,ChIJ0WWKHQX0NIgRzv58VQAAsvI,40.48032020000001,-79.972236,broad_filled
liberty ave,First National Bank,"4724 Liberty Avenue, Pittsburgh",3.8,ChIJ0WyPEkfyNIgR8w5NG4mGAWY,40.4614324,-79.9492944,consolidated
liberty ave,Bloomfield,Pittsburgh,,ChIJ0X4ZRUHyNIgRDG3KutmxB2g,40.4621606,-79.94445259999999,consolidated
penn ave,Tugboat Printshop,"298 Bowery Way, Pittsburgh",5.0,ChIJ0XBFmU7yNIgRZyWnnuwbQaI,40.467453,-79.9579653,consolidated
butler st,Baseball Field,Pittsburgh,,ChIJ0dYvklHyNIgRM7yYcHwosd4,40.4723589,-79.9574781,bounding_only
penn ave,LibertyX Bitcoin ATM,"3822 Butler Street, Pittsburgh",,ChIJ0e4OinjzNIgRgAUW-Q6AA1I,40.4671488,-79.96388089999999,consolidated
liberty ave,"Dr. Subramaniam Palanisamy, MD","4520 Penn Avenue, Pittsburgh",5.0,ChIJ0x5S6EXyNIgRwDvCnPVu4R8,40.4659913,-79.9515885,consolidated
butler st,Cattivo,"146 44th Street, Pittsburgh",4.5,ChIJ0yg081LyNIgR1f3iUqlu3Pw,40.4725388,-79.9616418,consolidated
penn ave,Wildcard,"4209 Butler Street, Pittsburgh",4.9,ChIJ0zMjhU3yNIgRccfYAk4oczI,40.4705707,-79.96065329999999,consolidated
penn ave,Family Hospice,"310 Fisk Street, Pittsburgh",4.0,ChIJ10Mbrk7yNIgRP-Iuj0piOmU,40.4659797,-79.9579565,consolidated
penn ave,UPMC Senior Communities,"200 Lothrop Street, Pittsburgh",1.0,ChIJ10Mbrk7yNIgRgbUmm4DS3c4,40.4657723,-79.9580991,consolidated
penn ave,Arsenal Elementary School,"215 39th Street, Pittsburgh",4.5,ChIJ11k5t0zyNIgRYJWd4k3S-W8,40.46713749999999,-79.96302949999999,consolidated
butler st,Bar Botanico,"4325 Butler Street, Pittsburgh",4.7,ChIJ13QMk5bzNIgRAucYjlY8NM4,40.47136829999999,-79.9601177,bounding_only
liberty ave,Thai Gourmet,"4505 Liberty Avenue, Pittsburgh",4.7,ChIJ157INUbyNIgRIdYcEKwlsxk,40.463207,-79.95149800000002,consolidated
penn ave,"Dialysis Clinic, Inc.","376 Fisk Street, Pittsburgh",,ChIJ18_DMZXzNIgRNtN56mL4wj4,40.4656954,-79.9573672,bounding_only
butler st,Keystone Vapors Lawrenceville,"4328 Butler Street, Pittsburgh",3.9,ChIJ1RNoC1LyNIgRpmnKRVfcOe0,40.4713332,-79.9597467,consolidated
penn ave,"Nisha Kamal Shah, DO","310 Fisk Street, Pittsburgh",,ChIJ1Sb-TFDzNIgR5K0WCbAllRQ,40.4661521,-79.9583097,consolidated
48th St,First National Bank,"420 Grant Avenue, Pittsburgh",3.9,ChIJ1T-6XKjzNIgR8261qkkFhTg,40.4804116,-79.9737291,broad_filled
butler st,D'Alessandro Funeral Home & Crematory Ltd.,"4522 Butler Street, Pittsburgh",4.4,ChIJ1YilJlLyNIgR7Qical_yIzw,40.4725189,-79.9586345,consolidated
liberty ave,Tessaro's American Bar & Hardwood Grill,"4601 Liberty Avenue, Pittsburgh",4.5,ChIJ1a5WTUbyNIgRjZqErFhIgMQ,40.4627075,-79.9507294,consolidated
butler st,Estelle S. Campbell - Boys & Girls Club of Western PA,"4600 Butler Street, Pittsburgh",4.6,ChIJ1dvMgFHyNIgRpIdt5U0t_Z4,40.47305230000001,-79.9580667,consolidated
39th St,Pittsburgh Paddlefish Dragon Boat Club,"90 River Front Drive, Millvale",5.0,ChIJ1eTwY7DzNIgRKlHSdbdUbJQ,40.469845,-79.9746558,broad_filled
butler st,KShu Media - Video Editing and Photo Editing,"149 43rd Street #2, Pittsburgh",5.0,ChIJ1ew6n4TzNIgROaSRamG4xn4,40.4718503,-79.9617377,bounding_only
penn ave,Bestwick Auto Services,"3520 Butler Street, Pittsburgh",4.6,ChIJ1z0O5rTzNIgRkFYg-zOqDes,40.46454459999999,-79.9656675,bounding_only
Plummer St,The Funhouse at Mr. Smalls,"400 Lincoln Avenue 2nd floor, Millvale",4.6,ChIJ1zoGtanzNIgRx1pZ87DeHl4,40.48096570000001,-79.9722912,broad_filled
penn ave,Butler St at 36th St,United States,,ChIJ2-Crv7TzNIgRVscjy2qCPLY,40.465381,-79.96527449999999,bounding_only
liberty ave,Liberty Ave at Canoe Way,United States,,ChIJ209u-EjyNIgRzV5jgGfND4c,40.4631355,-79.955061,bounding_only
liberty ave,Mosaic Dance and Movement Studio,"4514 Liberty Avenue, Pittsburgh",5.0,ChIJ21-T70nzNIgR6MYuX6BUIJw,40.4627058,-79.9514454,consolidated
45th St,"Naushin A. Udyawar, MD","111 Sheridan Street, Pittsburgh",,ChIJ21Ej5AbzNIgRmz5IY6Lj7cc,40.4790076,-79.97099299999999,broad_filled
48th st,Christman Chemical Co. Inc.,"One Sheridan Street, Millvale",,ChIJ22PRK6nzNIgR3BmittpFzik,40.4773719,-79.9718496,consolidated
butler st,Karen Meyers Photography,"100 43rd Street, Pittsburgh",5.0,ChIJ232pm-jtNIgRVtP5cYCjr_o,40.4728608,-79.9638889,consolidated
butler st,Attack Theatre,"212 45th Street, Pittsburgh",4.5,ChIJ23Frx8TzNIgRhpVoOyGa7g0,40.4718797,-79.9591766,consolidated
49th St,Ray Feather Photography,"517 Lincoln Avenue, Pittsburgh",,ChIJ24kbPqjzNIgRnXZWVrq8zQI,40.4813842,-79.9742095,broad_filled
liberty ave,H Lazar & Son Inc,"4416 Liberty Avenue #20, Pittsburgh",3.0,ChIJ24ynLkbyNIgRwfB9ij39EHw,40.4631643,-79.9524392,consolidated
butler st,La Gourmandine,"4605 Butler Street, Pittsburgh",4.8,ChIJ2RmULlLyNIgRiyhyWkajxPI,40.4731288,-79.9588764,consolidated
liberty ave,Citizens ATM,"4401 Liberty Avenue, Pittsburgh",,ChIJ2VY10NDzNIgRcoqwFnRf-K0,40.46418070000001,-79.9522332,bounding_only
liberty ave,Rite Aid,"4411 Howley Street, Pittsburgh",3.9,ChIJ2X-6IEbyNIgRScR3KfAELy4,40.464548,-79.95261099999999,consolidated
42nd St,"Daniels Electric Service, LLC","329 East Ohio Street, Pittsburgh",4.1,ChIJ2bM3_avzNIgREIiBT-nRV9Q,40.4775454,-79.9694912,broad_filled
penn ave,Hyacinth Epp Hall,"224 37th Street, Pittsburgh",,ChIJ2f5UV_nzNIgRHEBRsb31w5E,40.46560179999999,-79.96415379999999,bounding_only
mccandless ave,Vecenie's Distributing Co,"140 North Avenue, Millvale",4.9,ChIJ2y6TJqnzNIgRWfviOQbxNCI,40.4807191,-79.97494859999999,consolidated
liberty ave,Event Source - Pittsburgh,"4047 Liberty Avenue, Pittsburgh",4.3,ChIJ2zGQ_kjyNIgRHiJWGa_y38k,40.4633816,-79.9554302,bounding_only
liberty ave,Friendship Ave at Pearl St,United States,,ChIJ3-ZC6UbyNIgRsJjAJw0yI3M,40.463452,-79.9489205,bounding_only
penn ave,"Christine Healy, Pittsburgh Realtor with RE/MAX Real Estate Solutions","4020 Butler Street, Pittsburgh",5.0,ChIJ3091EEvzNIgR34IwhOtr83k,40.4691015,-79.9614952,consolidated
mccandless ave,Laundromat,"521 Grant Avenue, Millvale",3.8,ChIJ30rQdqjzNIgR4s-ehYZ5bbU,40.4807503,-79.9749121,consolidated
penn ave,Party On Butler,"4304 Butler Street, Pittsburgh",4.9,ChIJ31rV7MbtNIgRcTL7nd0lmqY,40.4707549,-79.9600786,consolidated
liberty ave,TMC Performance Products,"4040 Liberty Avenue, Pittsburgh",,ChIJ3S7Fq0nyNIgRkkfThyIy0BY,40.4628021,-79.9559531,bounding_only
liberty ave,Howley St at Friendship Ave,United States,,ChIJ3T_hdEbyNIgRuG6rZVCvYYg,40.465112,-79.951343,bounding_only
34th St,BearCom,"3229 Spruce Way, Pittsburgh",4.3,ChIJ3W2bIj3zNIgReXUKaiTVJR4,40.4624513,-79.97060700000002,broad_filled
Butler St,Allegheny Cemetery,"4734 Butler Street, Pittsburgh",4.8,ChIJ3WER90PyNIgR52OGokXT6ZA,40.47497200000001,-79.957413,broad_filled
liberty ave,Penn Ave at Main St,United States,,ChIJ3dVL00jyNIgRYrDNRln6srE,40.465604,-79.9552175,bounding_only
penn ave,Ethereal Studio,"3700 Penn Avenue, Pittsburgh",5.0,ChIJ3dsThXrzNIgR3csqgx0rTJo,40.4642777,-79.9623491,consolidated
45th St,Maude's Paperwing Gallery,"142 Grant Avenue FL 2, Millvale",4.9,ChIJ3fYPbXXtNIgR2DMgv-az8dM,40.4786674,-79.9706676,broad_filled
penn ave,Lawrenceville Lofts,"3711 Butler Street, Pittsburgh",,ChIJ3wj9VrPzNIgR8nsGGVhhlFs,40.4666344,-79.9645681,consolidated
Penn Ave,Marbella Event Furniture and Decor Rental,"3600 Liberty Avenue, Pittsburgh",,ChIJ3wrxq0ryNIgR-6FqZgtMzCg,40.4616342,-79.9637588,broad_filled
butler st,Agility Robotics,"91 43rd Street Suite 220, Pittsburgh",5.0,ChIJ3xiKDLbzNIgRLpWxW-a5Fqw,40.473351,-79.963422,consolidated
penn ave,Pure imagination,"4415 Garwood Way, Pittsburgh",5.0,ChIJ3y9eNwDzNIgREa_SdARJ6zM,40.46846720000001,-79.9547787,consolidated
penn ave,Otto Productions,"300 39th Street suite c, Pittsburgh",5.0,ChIJ4-LInkvyNIgR2i-vvBgrerg,40.4650852,-79.9609206,consolidated
Butler St,Cutitta Chiropractic,"4733 Butler Street, Pittsburgh",4.8,ChIJ41BeW1HyNIgR4sPbtKeMxyQ,40.4750307,-79.9578374,broad_filled
Butler St,"Michael R. Cutitta, DC","4733 Butler Street, Pittsburgh",,ChIJ41BeW1HyNIgRsI8bbsk8zMI,40.4750249,-79.9579383,broad_filled
penn ave,Rubber Products Tire Co,"3810 Penn Avenue, Pittsburgh",3.9,ChIJ42rmCUvyNIgRLJ0BW5dYKLs,40.46456989999999,-79.9610421,consolidated
butler st,Redfishbowl,"4327 Butler Street #200, Pittsburgh",4.9,ChIJ45zPpBDzNIgRIskaArQO6d4,40.471468,-79.9600765,bounding_only
penn ave,Anderson David A DDS,"4201 Butler Street, Pittsburgh",3.0,ChIJ47JSmk3yNIgRrjw_C5ehFZI,40.4703353,-79.9606903,bounding_only
Stanton Ave,Millvale Market,"524 Grant Avenue Floor 1, Millvale",4.6,ChIJ47pOfZPzNIgRY_j6yEEmhLA,40.4810875,-79.97467499999999,broad_filled
liberty ave,ALANZOS DISTRIBUTOR,"4614 Liberty Avenue Floor #2, Pittsburgh",,ChIJ49gmqUfyNIgRrwTIq6TNGJo,40.4622132,-79.9503354,bounding_only
34th St,LibertyX Bitcoin ATM,"86 35th Street, Pittsburgh",,ChIJ4Qz2p8DzNIgRR_HId-uBxP8,40.46428969999999,-79.9704762,broad_filled
penn ave,Morcilla,"3519 Butler Street, Pittsburgh",4.7,ChIJ4SrQ-rTzNIgRBCWal8EzERk,40.4645709,-79.9661648,consolidated
penn ave,Loft Home,"3529 Butler Street, Pittsburgh",4.9,ChIJ4VVaiC_zNIgRQQ3j_HOE1hk,40.4649071,-79.9659728,bounding_only
liberty ave,Matotek Louise,"4760 Liberty Avenue, Pittsburgh",,ChIJ4a0_RkfyNIgRBigEvMAkQXQ,40.460845,-79.948054,bounding_only
liberty ave,Weirsznewski Theresa,"4760 Liberty Avenue, Pittsburgh",,ChIJ4a0_RkfyNIgRJ73dMazK5LY,40.460845,-79.948054,bounding_only
liberty ave,Los Cabos Mexican Restaurant,"4110 Penn Avenue, Pittsburgh",4.3,ChIJ4at4NE_yNIgRDPjJG9F_BQQ,40.465667,-79.95455,bounding_only
liberty ave,Isle of You Hair Color Studio,"4047 Penn Avenue, Pittsburgh",4.7,ChIJ4b88t1fyNIgRAxq_boM1euM,40.46568389999999,-79.9561717,bounding_only
liberty ave,"Roxana F. Barad, M.D.","4424 Penn Avenue #102, Pittsburgh",2.3,ChIJ4wauT8_vNIgR5xdFlJ9SGTs,40.465907,-79.952608,bounding_only
Plummer St,"Pretty Birds, LLC","425 Grant Avenue, Pittsburgh",4.7,ChIJ4wbcYKjzNIgRW_UNp7EhlvQ,40.4800787,-79.9740151,broad_filled
44th St,Contractor Plumbing Supply,"419 East Ohio Street Lot Side, Millvale",5.0,ChIJ5-y5TgnzNIgRJbE7Rge4WYg,40.47820410000001,-79.969199,broad_filled
44th St,MoneyGram,"129 Lincoln Avenue, Swissvale",4.0,ChIJ504DZKnzNIgRx4gDuBu9c0A,40.4785906,-79.97001910000002,broad_filled
butler st,Asia Margo Photography,"100 43rd Street, Pittsburgh",,ChIJ50KszQztNIgRlsTB4CqeBa0,40.4729243,-79.96394649999999,consolidated
stanton ave,Bore-Millvale Athletic Field,Millvale,5.0,ChIJ50Up_KbzNIgRrzq_JRJcRME,40.480069,-79.9783862,consolidated
penn ave,LibertyX Bitcoin ATM,"3939 Butler Street, Pittsburgh",,ChIJ51YRg_rzNIgRzTFGQ08-KhY,40.4690468,-79.96329089999999,consolidated
liberty ave,Condrin Tavern,"4501 Torley Street, Pittsburgh",4.8,ChIJ51ZZeUbyNIgR2bSGde-0wMA,40.4648698,-79.9505188,bounding_only
Liberty Ave,Trailer Rental at U-Haul,"3700 Bigelow Boulevard, Pittsburgh",4.5,ChIJ54xeI2TzNIgRDBPRGuNxNBA,40.4576139,-79.95653080000001,broad_filled
penn ave,Deli on Butler,"4108 Butler Street, Pittsburgh",4.7,ChIJ55rQBU3yNIgRzoL6N8HVv_4,40.469666,-79.96094409999999,consolidated
butler st,Butler St + 44th,United States,,ChIJ56ITDVLyNIgRCl972KV6hx4,40.4715875,-79.9597981,bounding_only
50th St,Reserve Township Office,"33 Lonsdale Street # 2, Pittsburgh",3.0,ChIJ57DZaqPzNIgR7onxVzonBs8,40.4741355,-79.98256479999999,broad_filled
49th St,Reserve Volunteer Fire Department,"33 Lonsdale Street, Pittsburgh",5.0,ChIJ57DZaqPzNIgRQHDhapTDvhw,40.4743828,-79.9822758,broad_filled
49th St,Mt Troy Ballroom,"33 Lonsdale Street, Pittsburgh",4.4,ChIJ57DZaqPzNIgRRm2db2oSk24,40.4741927,-79.98242499999999,broad_filled
penn ave,Oasis Restaurant,"4012 Butler Street, Pittsburgh",4.3,ChIJ58X5w67zNIgRLny0vnJKViM,40.4688893,-79.9616618,consolidated
52nd St,"Dr. Franklin N. Masin, MD",United States,,ChIJ5QXLFqjzNIgR_SWoNohU_KE,40.48138600000001,-79.97425989999999,broad_filled
butler st,Techmill 41,"105 40th Street, Pittsburgh",3.5,ChIJ5RbhtjDzNIgRLZioFwQ-Cy8,40.4715778,-79.9649063,consolidated
butler st,Steven Dalton Photography,"265 46th Street Apt. 1212, Pittsburgh",5.0,ChIJ5S5miMdjM4gR40fBCaHxOMg,40.4716649,-79.95629799999999,consolidated
butler st,"SKIBBA Illustration, LLC","100 43rd Street #211, Pittsburgh",,ChIJ5SDBc1LyNIgRiHUbiyZsiV4,40.47292399999999,-79.96394699999999,consolidated
34th St,Pittsburgh Kitchenramma,"3340 Smallman Street, Pittsburgh",3.8,ChIJ5TTlwbXzNIgRVdAnHTB5nSk,40.4628416,-79.968384,broad_filled
penn ave,Piccolo Forno,"3801 Butler Street, Pittsburgh",4.5,ChIJ5UoaTrPzNIgR67C6D3W0d-M,40.4670037,-79.9643576,consolidated
penn ave,St Augustine Friary,"221 36th Street, Pittsburgh",5.0,ChIJ5X-jt7TzNIgRkqPH359i-yg,40.46538679999999,-79.9648062,bounding_only
penn ave,Lawrenceville Market House,"4112 Butler Street, Pittsburgh",4.5,ChIJ5YiScLDzNIgRvJZB7KdJLOs,40.4698584,-79.9606885,consolidated
penn ave,Pulchra,"3505 Butler Street, Pittsburgh",3.7,ChIJ5ZZqmLXzNIgRu7tBBODSjqs,40.46422719999999,-79.96640459999999,consolidated
48th St,Safety Guard Steel Fabricating Shop,"220 Lincoln Avenue, Millvale",,ChIJ5_eR2qvzNIgR805d9Qb3c68,40.4801261,-79.9709302,broad_filled
penn ave,"New Ivy Group, LLC","c/o Beauty Shoppe, 3706 Butler Street, Pittsburgh",,ChIJ5_op62DzNIgRpcogo31IXnc,40.4663709,-79.9643997,bounding_only
butler st,"ProtoInnovations, LLC","100 43rd Street, Pittsburgh",5.0,ChIJ5bNuyVLyNIgR-mAZxBV-GuI,40.47287370000001,-79.9638856,consolidated
butler st,Pittsburgh Ultimate,"100 43rd Street, Pittsburgh",5.0,ChIJ5bNuyVLyNIgRGcq9Dckq23c,40.4726675,-79.9638216,consolidated
butler st,Lawrenceville Corporation,"100 43rd Street #208, Pittsburgh",4.8,ChIJ5bNuyVLyNIgRHvWACuGYilI,40.4729243,-79.96394649999999,consolidated
butler st,McCormick Architects and Designers,"100 43rd Street, Pittsburgh",5.0,ChIJ5bNuyVLyNIgRJOTQAFLkNYQ,40.47287370000001,-79.9638856,consolidated
butler st,Neoforma Design,"100 43rd Street #211, Pittsburgh",,ChIJ5bNuyVLyNIgRp40m1MyOx2c,40.47287370000001,-79.9638856,consolidated
penn ave,Modern Fertility Care,"3706 Butler Street, Pittsburgh",5.0,ChIJ60gxMBPzNIgRxqErUcMTIIs,40.4663709,-79.9643997,bounding_only
butler st,Raise Fitness,"212 44th Street, Pittsburgh",5.0,ChIJ62-BX47zNIgRbXg2pl6Yz0E,40.471189,-79.9595354,consolidated
penn ave,LOYALTY ENTERTAINMENT ️,"3441 Butler Street, Pittsburgh",5.0,ChIJ6202DVZbNIgRF2gsd4mgpm8,40.4639279,-79.9666713,consolidated
Liberty Ave,Talking Computers,"4736 Penn Avenue, Pittsburgh",,ChIJ64kL-0PyNIgRh5lMNt6jbpU,40.4652856,-79.94670409999999,broad_filled
liberty ave,Dr. Karen Mele,"4760 Liberty Avenue, Pittsburgh",,ChIJ65ESRkfyNIgRrvxA1KwZ2Aw,40.4609409,-79.9480291,bounding_only
butler st,New Amsterdam,"4421 Butler Street, Pittsburgh",4.1,ChIJ66LSFVLyNIgRtZXizJSCCGk,40.472149,-79.95953,consolidated
butler st,Radiant Hall Studios,"4514 Plummer Street, Pittsburgh",4.9,ChIJ67P1TFLyNIgRxyaJykqO1bo,40.4734789,-79.9603211,consolidated
45th St,"Tricia R Sorg, Esquire","201 Grant Avenue Floor 1, Millvale",3.8,ChIJ67llFKnzNIgRiezwasCKXhw,40.4786274,-79.97123669999999,broad_filled
penn ave,Steel House Cycle,"4100 Butler Street, Pittsburgh",4.9,ChIJ67ttM6LzNIgRW-EmOTNRjuY,40.469382,-79.96105299999999,consolidated
penn ave,Constellation Coffee,"4059 Penn Avenue, Pittsburgh",4.6,ChIJ6RYU1U7yNIgRW5lPuLNmkNQ,40.4657597,-79.95576009999999,bounding_only
penn ave,St Augustine's Plaza,"230 36th Street, Pittsburgh",3.2,ChIJ6RdPzLTzNIgRKf6N2ZjNgNY,40.464839,-79.9644769,consolidated
penn ave,Lawrenceville,Pittsburgh,,ChIJ6Rdn2lLyNIgRE86PqbGEIps,40.4698118,-79.9609176,consolidated
liberty ave,"Dr. Amanda Lovallo, MD","4401 Penn Avenue, Pittsburgh",,ChIJ6XMqTE_yNIgR0wc3KYT_9Y8,40.4661227,-79.9533866,bounding_only
liberty ave,"Dr. David N. Finegold, MD","4401 Penn Avenue, Pittsburgh",5.0,ChIJ6XMqTE_yNIgR14rLjgvnwdk,40.4661227,-79.9533866,bounding_only
liberty ave,"Leigh Anne DiCicco, MD","4401 Penn Avenue, Pittsburgh",,ChIJ6XMqTE_yNIgR2L1jfVBoaWU,40.4661227,-79.9533866,bounding_only
liberty ave,"Dr. Cheyenne M. Beach, MD","4401 Penn Avenue, Pittsburgh",,ChIJ6XMqTE_yNIgR2yENnIsU0Mw,40.4661227,-79.9533866,bounding_only
liberty ave,"Traci M Kazmerski, MD","4401 Penn Avenue, Pittsburgh",,ChIJ6XMqTE_yNIgR4iSPhTiuCS4,40.466019,-79.953125,bounding_only
liberty ave,Pediatric Primary Care Center: Artman Jamie,"4401 Penn Avenue # 5643, Pittsburgh",,ChIJ6XMqTE_yNIgR5yYKb2DcB2k,40.4660999,-79.95351959999999,bounding_only
liberty ave,"Dr. Sara B. Silvestri, MD","4401 Penn Avenue, Pittsburgh",5.0,ChIJ6XMqTE_yNIgR7eG6RwtS_vk,40.4661227,-79.9533866,bounding_only
liberty ave,Lowe Mark E MD,"4401 Penn Avenue, Pittsburgh",,ChIJ6XMqTE_yNIgR9buGk1QZOFg,40.4661227,-79.9533866,bounding_only
liberty ave,"Dr. Sara Swanson, MD","4401 Penn Avenue, Pittsburgh",,ChIJ6XMqTE_yNIgR9ivKJt_vOZQ,40.4661227,-79.9533866,bounding_only
liberty ave,Saladino Richard A MD,"4401 Penn Avenue, Pittsburgh",,ChIJ6XMqTE_yNIgRDIFJx2D5Dag,40.4661227,-79.9533866,bounding_only
liberty ave,"Dr. Lance M. Brunton, MD","4401 Penn Avenue, Pittsburgh",,ChIJ6XMqTE_yNIgRHMc1wSkmmbE,40.4660999,-79.95351959999999,bounding_only
liberty ave,Janowski Andrew B MD,"4401 Penn Avenue, Pittsburgh",,ChIJ6XMqTE_yNIgRJ1G6KgkivUI,40.466019,-79.953125,bounding_only
liberty ave,Madan-Khetarpal Suneeta MD,"4401 Penn Avenue, Pittsburgh",3.0,ChIJ6XMqTE_yNIgRKHcOB_Di6Uo,40.4661227,-79.9533866,bounding_only
liberty ave,"Dr. Kristin M. Farrell, MD","4401 Penn Avenue, Pittsburgh",,ChIJ6XMqTE_yNIgRKtPGY4vZ7tY,40.4661227,-79.9533866,bounding_only
liberty ave,"Dr. Noorjahan Ali, MD","4401 Penn Avenue, Pittsburgh",,ChIJ6XMqTE_yNIgRLOqrxdsKtYA,40.466019,-79.953125,bounding_only
liberty ave,"Dr. Kendra S. Woods, MD","4401 Penn Avenue, Pittsburgh",,ChIJ6XMqTE_yNIgRNe1h17FZnsk,40.4661227,-79.9533866,bounding_only
liberty ave,"Dr. Kimberly B. Horner, MD","4401 Penn Avenue, Pittsburgh",,ChIJ6XMqTE_yNIgRRQ0PTCPiBQs,40.4661227,-79.9533866,bounding_only
liberty ave,"Dr. Jamie L. Bell, MD","4401 Penn Avenue, Pittsburgh",,ChIJ6XMqTE_yNIgRV3kSXewfv2w,40.4661227,-79.9533866,bounding_only
liberty ave,"Dr. Christopher R. Deskins, MD","4401 Penn Avenue, Pittsburgh",,ChIJ6XMqTE_yNIgRWY-vuzsrzCc,40.466019,-79.953125,bounding_only
liberty ave,"Dr. Katie E. Rau, MD","4401 Penn Avenue, Pittsburgh",,ChIJ6XMqTE_yNIgRYEa6tY1f8JQ,40.4661227,-79.9533866,bounding_only
liberty ave,"Dr. Sonia Singh, MD","4401 Penn Avenue, Pittsburgh",,ChIJ6XMqTE_yNIgR_svemNQEY0o,40.4661227,-79.9533866,bounding_only
liberty ave,"Dr. Katrina Kerns, MD","4401 Penn Avenue, Pittsburgh",,ChIJ6XMqTE_yNIgRaRa8XBFRZhw,40.4660999,-79.95351959999999,bounding_only
liberty ave,"Dr. Gerard Vockley, MD","4401 Penn Avenue, Pittsburgh",5.0,ChIJ6XMqTE_yNIgRddI4EcJ8C_k,40.4661227,-79.9533866,bounding_only
liberty ave,"Stephen A. Mendelson, MD","4401 Penn Avenue, Pittsburgh",4.0,ChIJ6XMqTE_yNIgRfVwzSLYqGyY,40.4661227,-79.9533866,bounding_only
liberty ave,"Dr. Andre D. Furtado, MD","4401 Penn Avenue, Pittsburgh",,ChIJ6XMqTE_yNIgRgI9_DcpsSco,40.4661227,-79.9533866,bounding_only
liberty ave,"Dr. Erin M. Kaiser, MD","4401 Penn Avenue, Pittsburgh",,ChIJ6XMqTE_yNIgRg_TjCGUNP0I,40.4660999,-79.95351959999999,bounding_only
liberty ave,Vitale Melissa A MD,"4401 Penn Avenue # 2400, Pittsburgh",,ChIJ6XMqTE_yNIgRggMCI4Lzi6c,40.4660311,-79.95402519999999,bounding_only
liberty ave,Mahmood Burhanuddin MD,"4401 Penn Avenue, Pittsburgh",,ChIJ6XMqTE_yNIgRgt-gKzA1TtM,40.4661227,-79.9533866,bounding_only
liberty ave,Gorham Laura M MD,"4401 Penn Avenue, Pittsburgh",,ChIJ6XMqTE_yNIgRnCzrstoUSBs,40.4661227,-79.9533866,bounding_only
liberty ave,Hearing Center,"4401 Penn Avenue, Pittsburgh",,ChIJ6XMqTE_yNIgRniJy3FvIq8k,40.46624379999999,-79.9532741,bounding_only
liberty ave,"Benjamin Miller, MD","4401 Penn Avenue, Pittsburgh",,ChIJ6XMqTE_yNIgRoGBZ-E4-ifE,40.4661227,-79.9533866,bounding_only
liberty ave,"Dr. Victoria S. Winkeller, MD","4401 Penn Avenue, Pittsburgh",5.0,ChIJ6XMqTE_yNIgRoLVFkiqBS3o,40.4661227,-79.9533866,bounding_only
liberty ave,"Veena Venkat, MD","4401 Penn Avenue, Pittsburgh",,ChIJ6XMqTE_yNIgRpriwJwYF7oc,40.4661227,-79.9533866,bounding_only
liberty ave,"Dr. Vincent F. Deeney, MD","4400 Penn Avenue, Pittsburgh",,ChIJ6XMqTE_yNIgRsC5gFlHkuis,40.46578559999999,-79.953301,bounding_only
liberty ave,"Dr. Victor L. Scott, MD","4401 Penn Avenue, Pittsburgh",,ChIJ6XMqTE_yNIgRuQcJARlPlKk,40.4661227,-79.9533866,bounding_only
liberty ave,Keljo David J MD,"4401 Penn Avenue, Pittsburgh",,ChIJ6XMqTE_yNIgRy6OxlmLAmkQ,40.4660999,-79.95351959999999,bounding_only
liberty ave,Children's Hospital of Pittsburgh of UPMC -Mc Lendon Patricia Dr,"4401 Penn Avenue, Pittsburgh",,ChIJ6XMqTE_yNIgRz-z6klN0ifc,40.4660999,-79.95351959999999,bounding_only
penn ave,Our Lady of the Angels Parish,"333 45th Street, Pittsburgh",4.4,ChIJ6YTkSk7yNIgRuQKmmFEvJjs,40.4699635,-79.9558283,consolidated
butler st,Rogue Tattoo,"4319 Butler Street. (rear entrance On, Eden Way, Pittsburgh",4.8,ChIJ6daqElLyNIgRfU6xVXeOaAk,40.4712982,-79.9603424,consolidated
Charlotte,MT Troy Rd + Baun,United States,,ChIJ6yiUVJ7zNIgRfz4WIomnwGc,40.481491,-79.989209,broad_filled
liberty ave,Wai Wai - Bloomfield,"4717 Liberty Avenue, Pittsburgh",3.9,ChIJ7-YJEEfyNIgRO0lw1eHhKwM,40.462008,-79.949185,consolidated
penn ave,Epistemix,"3706 Butler Street, Pittsburgh",,ChIJ70vuaXbxNIgRXZyEIjBNzAw,40.4663569,-79.9644283,bounding_only
liberty ave,KeyMe Locksmiths,"4401 Liberty Avenue, Pittsburgh",5.0,ChIJ72QzBpHzNIgRX0jVS0TZ8fQ,40.46418070000001,-79.9522332,bounding_only
butler st,Mauney Doty L,"145 44th Street, Pittsburgh",3.7,ChIJ73MZ9lLyNIgRfdh9L2Bp-Rk,40.47284570000001,-79.9612628,bounding_only
butler st,Cornell William F,"145 44th Street, Pittsburgh",5.0,ChIJ73MZ9lLyNIgRnfxNd1l-Nlc,40.47284570000001,-79.9612628,consolidated
butler st,O'Hara Terry,"145 44th Street, Pittsburgh",5.0,ChIJ73MZ9lLyNIgRuH0d_AouLBc,40.47284570000001,-79.9612628,consolidated
51st St,MT Troy Rd + Alfred,United States,,ChIJ73ZH1bzzNIgRI1qm-BPDwws,40.473092,-79.983485,broad_filled
44th St,Grant Bar Inc,"114 Grant Avenue, Pittsburgh",4.5,ChIJ75smXqnzNIgR1Vqf98Bd5vQ,40.4782667,-79.9697429,broad_filled
penn ave,FedEx Drop Box,"449 44th Street, Pittsburgh",,ChIJ76O60YXzNIgRHLHaF4zGcbE,40.4675479,-79.9537849,bounding_only
penn ave,Dr. Emil Nutrition,"3700 Butler Street, Pittsburgh",4.9,ChIJ78U0kQrzNIgRl_MfelOHRmY,40.4662644,-79.9644211,bounding_only
penn ave,"Amy Letteri, PhD","4117 Penn Avenue, Pittsburgh",,ChIJ79iIshXzNIgReoAtt4MhMMs,40.4659347,-79.95472459999999,bounding_only
penn ave,CDC Hauling LLC,"4407 Davison Street, Pittsburgh",5.0,ChIJ7Q1oLY3zNIgR5gZoe7Udol4,40.4702443,-79.95772939999999,consolidated
44th St,Lowrie St at Heckleman St,United States,,ChIJ7RJOwbvzNIgRHBQDGWKAzfs,40.468698,-79.9790915,broad_filled
penn ave,Coinhub Bitcoin ATM Teller,"3939 Butler Street, Pittsburgh",,ChIJ7V8YnGLzNIgRdUKZT29l3S4,40.4690468,-79.96329089999999,consolidated
liberty ave,Froggy's Bar,"4602 Liberty Avenue, Pittsburgh",4.3,ChIJ7VpHEHHzNIgRYmA5WPouG68,40.46249189999999,-79.9508676,bounding_only
45th St,Millvale Community Library,"213 Grant Avenue, Millvale",4.7,ChIJ7ZfwEKnzNIgRMhgYM2mQZ9M,40.4788536,-79.9716107,broad_filled
penn ave,Studio 725 Hair Boutique,"First floor, 3538 Butler Street, Pittsburgh",4.5,ChIJ7_blwbTzNIgRy1heacfI8F4,40.4649929,-79.9653896,bounding_only
37th St,Washington's Landing Public Tennis Courts,Pittsburgh,,ChIJ7ayVlbDzNIgRaKnouxL7vq4,40.4686111,-79.9740851,broad_filled
mccandless ave,Somers Creative Group,"143 Howard Street, Pittsburgh",,ChIJ7bnFL5fzNIgRkMyauF5kvqA,40.4809712,-79.9752638,consolidated
liberty ave,Mooney William E MD,"4416 Penn Avenue, Pittsburgh",,ChIJ7cAjVk_yNIgR32EEe5gxiRM,40.46582009999999,-79.9528495,bounding_only
liberty ave,Kenny Amy G,"4416 Penn Avenue, Pittsburgh",,ChIJ7cAjVk_yNIgR4HOn9zwoM9Q,40.46587089999999,-79.95286,bounding_only
liberty ave,"Claudia J. Warner, MSW","4416 Penn Avenue, Pittsburgh",,ChIJ7cAjVk_yNIgRN0GCA9xZuOs,40.46587089999999,-79.95286,bounding_only
liberty ave,Shepherd Wellness Community,"4800 Sciota Street, Pittsburgh",4.5,ChIJ7dBnqjjyNIgRc50b6sPU6IQ,40.4596193,-79.9473668,bounding_only
butler st,Fancypants Popcorn,"4323 Butler Street, Pittsburgh",4.8,ChIJ7fDNYLTzNIgRwuhPnVkljpg,40.4713449,-79.96019129999999,bounding_only
penn ave,Pittsburgh Fire Bureau Station 6,"3958 Penn Avenue, Pittsburgh",5.0,ChIJ7fEjXEnyNIgRRa01PU_r0LY,40.46488489999999,-79.958049,consolidated
34th St,PeopleReady,"19 35th Street, Pittsburgh",3.6,ChIJ7fruEhz0NIgRm3CUHDkE7K8,40.4659911,-79.970692,broad_filled
liberty ave,Mitchell Joan,"4727 Friendship Avenue # 240, Pittsburgh",,ChIJ7yG670XyNIgR1NJJT_zfXYM,40.4632342,-79.94816809999999,consolidated
liberty ave,Zieger Deborah B,"4727 Friendship Avenue # 240, Pittsburgh",,ChIJ7yG670XyNIgR1uTYM4YK1zk,40.4632342,-79.94816809999999,consolidated
liberty ave,Woznick Shannon,"4727 Friendship Avenue # 240, Pittsburgh",,ChIJ7yG670XyNIgRJu-3stSQsuE,40.4632342,-79.94816809999999,consolidated
liberty ave,Aiello Natalie,"4727 Friendship Avenue # 240, Pittsburgh",,ChIJ7yG670XyNIgRO5-1hrGuJy8,40.4632342,-79.94816809999999,consolidated
liberty ave,Chandler Erynn M,"4727 Friendship Avenue # 240, Pittsburgh",,ChIJ7yG670XyNIgRRyZbQ7yyny0,40.4632342,-79.94816809999999,consolidated
liberty ave,"Sherie L. Scarnati, CRNP","4727 Friendship Avenue, Pittsburgh",,ChIJ7yG670XyNIgRSHvOzwGUU14,40.4632342,-79.94816809999999,consolidated
liberty ave,"Dr. Mohit Jhamb, MD","4727 Friendship Avenue, Pittsburgh",,ChIJ7yG670XyNIgRUYYCAstcPFM,40.4632342,-79.94816809999999,consolidated
liberty ave,"Dr. Lawrence Collins, DO","4727 Friendship Avenue, Pittsburgh",,ChIJ7yG670XyNIgRVBf3r04jYMg,40.4632342,-79.94816809999999,consolidated
liberty ave,Armanious Christina D MD,"4727 Friendship Avenue Suite 200, Pittsburgh",,ChIJ7yG670XyNIgRbFxgQsXTrvQ,40.4632342,-79.94816809999999,consolidated
liberty ave,Slater Ashleigh E,"4727 Friendship Avenue # 240, Pittsburgh",,ChIJ7yG670XyNIgRbTSlxiv7zhc,40.4632342,-79.94816809999999,consolidated
liberty ave,Pegram Cora S,"4727 Friendship Avenue # 240, Pittsburgh",,ChIJ7yG670XyNIgReWfl_EeDHRY,40.4632342,-79.94816809999999,consolidated
liberty ave,"Mary T. Hurley, CRNP","4727 Friendship Avenue, Pittsburgh",,ChIJ7yG670XyNIgRno37WdQl_9Y,40.4632342,-79.94816809999999,consolidated
liberty ave,Casper Christina M,"4727 Friendship Avenue # 240, Pittsburgh",,ChIJ7yG670XyNIgRqxLdajRPiW8,40.4632342,-79.94816809999999,consolidated
liberty ave,Morrison Suzanne R,"4727 Friendship Avenue # 240, Pittsburgh",,ChIJ7yG670XyNIgRs1oXinBlEbY,40.4632342,-79.94816809999999,consolidated
liberty ave,"Dr. Anthony X. Baroni, DO","4727 Friendship Avenue, Pittsburgh",1.0,ChIJ7yG670XyNIgRsLptZJqtqI8,40.4632342,-79.94816809999999,consolidated
liberty ave,"Dr. Dmitri V. Vassiliev, MD","4727 Friendship Avenue, Pittsburgh",,ChIJ7yG670XyNIgRtHvQcjNLl0c,40.4632342,-79.94816809999999,consolidated
butler st,Stone + Sparrow Studio,"100 43rd Street Suite 205, Pittsburgh",5.0,ChIJ7ygcK5ztNIgRa2fBDfPLrfc,40.4729243,-79.96394649999999,consolidated
liberty ave,Friendship Ave + Ella St,United States,,ChIJ8-LSZEbyNIgRI-FJIWMqHdI,40.46461499999999,-79.950508,bounding_only
penn ave,Kickback Pinball Cafe,"basement, 4112 Butler Street, Pittsburgh",4.6,ChIJ81YsC1LyNIgRRnRiwcOybnk,40.4698275,-79.9606481,consolidated
liberty ave,Bloomfield Automotive & Auto Sales Inc.,"3959 Neville Street, Pittsburgh",,ChIJ83_N6UnyNIgRo-Mu1uGrpQk,40.461537,-79.957078,bounding_only
mccandless ave,McGrath Medical,"141 Howard Street, Pittsburgh",,ChIJ84JIssXzNIgRr5drUFb-zMI,40.4809356,-79.975306,consolidated
43rd St,East Ohio St at Grant Ave,United States,,ChIJ868r4avzNIgRZmaD19OrfxQ,40.47802599999999,-79.9692915,broad_filled
Plummer St,Fox's Pizza Den,"401 Grant Avenue, Pittsburgh",4.2,ChIJ87dkzcTzNIgRQ_0EH32O5gc,40.4797981,-79.9732545,broad_filled
penn ave,Rite Aid,"3939 Butler Street, Pittsburgh",3.1,ChIJ88KVJ7HzNIgRoogo6Ut5SIM,40.46900900000001,-79.96321999999999,consolidated
52nd st,"Dr. George R. Sitterle, DDS","820 Stanton Avenue, Pittsburgh",2.2,ChIJ88Tjp53zNIgRKm3jvdErm34,40.4805543,-79.9793942,consolidated
liberty ave,Clothes Minded,"4740 Liberty Avenue, Pittsburgh",4.3,ChIJ8TC8akfyNIgRPWW81WSS_ak,40.4612565,-79.9486541,consolidated
penn ave,New Bethel Baptist Church,"221 43rd Street, Pittsburgh",4.6,ChIJ8Txz7U3yNIgR-pdl4uUpMa0,40.47046030000001,-79.9596712,consolidated
liberty ave,It's Kleen Time Car Wash,"4060 Woolslayer Way, Pittsburgh",4.5,ChIJ8VwofHDzNIgRcHWO53dg6Qw,40.4650492,-79.9554612,bounding_only
51st St,MT Troy Rd + Alfred,United States,,ChIJ8X6w1LzzNIgRRRxwIkEDo6M,40.473098,-79.983389,broad_filled
penn ave,Bill Ballon Automotive Independent BMW Automobile Specialists,"164 39th Street, Pittsburgh",4.1,ChIJ8XWOJLPzNIgRUNvRF44Bk6c,40.4684204,-79.96502129999999,consolidated
penn ave,T's Upholstery Studio,"3611 Butler Street, Pittsburgh",4.2,ChIJ8_Q_vbTzNIgRr9aQH9cEWzk,40.46576789999999,-79.9652691,consolidated
penn ave,CLP Lawrenceville,"279 Fisk Street, Pittsburgh",,ChIJ8_dLNJnzNIgRrT09SSVh0_4,40.4675773,-79.9590953,consolidated
penn ave,PrintWithMe Print Kiosk at Ineffable CaPhe,"3920 Penn Avenue, Pittsburgh",,ChIJ8dlF5W3zNIgR04T3ZkuSXNg,40.4646759,-79.9593124,bounding_only
liberty ave,White Whale Bookstore,"4754 Liberty Avenue, Pittsburgh",4.8,ChIJ8z0fR0fyNIgRujuROd2LhKo,40.461023,-79.9482606,bounding_only
penn ave,Round Corner Cantina,"3720 Butler Street, Pittsburgh",4.3,ChIJ8zAcVLPzNIgRhsHbKaVgfnM,40.466703,-79.964259,consolidated
37th St,Attorney General Env Crimes,"400 Waterfront Drive, Pittsburgh",,ChIJ8zTv4LnzNIgR42Zewll5EWI,40.4659736,-79.9756268,broad_filled
38th St,Pennsylvania Department of Environmental Protection - Southwest Regional Office,"400 Waterfront Drive, Pittsburgh",3.2,ChIJ8zTv4LnzNIgRnzu54KHqkKA,40.4661882,-79.9757107,broad_filled
34th St,Strip Self Storage,"116 34th Street, Pittsburgh",4.3,ChIJ9-5o2bXzNIgRy3pEJuw9mFs,40.4632423,-79.9694943,broad_filled
liberty ave,Salon DeMarzano,"4764 Liberty Avenue, Pittsburgh",4.5,ChIJ9-KJo0fyNIgRVS_VLbjdOaA,40.460884,-79.947964,bounding_only
liberty ave,Friendship Ave + Pearl St,United States,,ChIJ902R6UbyNIgR5a9cezpnNCs,40.46349,-79.94881199999999,bounding_only
liberty ave,APTEKA,"4606 Penn Avenue, Pittsburgh",4.7,ChIJ9Q1kJUTyNIgRuvW9f60WFmI,40.46575,-79.94929719999999,bounding_only
52nd st,Northern Area (Millvale) Boys & Girls Club of Western PA,"100 Howard Street, Millvale",5.0,ChIJ9QjhKKbzNIgRKt8aAG977OQ,40.48033039999999,-79.9764486,consolidated
liberty ave,ATM,"4617 Liberty Avenue, Pittsburgh",,ChIJ9RuVqkfyNIgR7To62HqnQAg,40.4625621,-79.9501715,consolidated
liberty ave,Lot 17,"1922, 4617 Liberty Avenue, Pittsburgh",4.5,ChIJ9RuVqkfyNIgRkMqRFmij0AE,40.4624552,-79.9502692,consolidated
39th St,Three Rivers Boat Rental,"101A Bridge Street, Millvale",4.4,ChIJ9TRXUVzzNIgRoC6daXW6keY,40.4759885,-79.9685157,broad_filled
penn ave,Brian - Realtor,"4020 Butler Street, Pittsburgh",4.7,ChIJ9TaBEUpZNIgRYexuCz19uKY,40.4691015,-79.9614952,consolidated
penn ave,MJ Eclectic,"4112 Butler Street, Pittsburgh",5.0,ChIJ9Um_jKTzNIgRCXpOFt5xOrM,40.4698416,-79.9606687,consolidated
liberty ave,Albanese Real Estate Inc,"4020 Liberty Avenue, Pittsburgh",,ChIJ9Xx9pUnyNIgRUwJLk9eKPkc,40.4628352,-79.9564335,bounding_only
34th St,Charlotte Dumpster Rental Pittsburgh,"3410 Charlotte Street, Pittsburgh",,ChIJ9YA93pzzNIgRSskQihezNr0,40.4632478,-79.9677706,broad_filled
butler st,Banh Mi & Ti,"4502 Butler Street, Pittsburgh",4.7,ChIJ9b8gGVLyNIgRZyoRQ5by93c,40.4721765,-79.95905599999999,consolidated
penn ave,Ineffable Cà Phê,"3920 Penn Avenue, Pittsburgh",4.6,ChIJ9buawkvyNIgRtuSs0OqiK6I,40.4647613,-79.9593081,consolidated
liberty ave,"Dr. Raj A. Narayan, MD","340 Pearl Street, Pittsburgh",2.2,ChIJ9c0JmkfyNIgRPRu2YRSMDiE,40.461142,-79.9509063,consolidated
liberty ave,Hammer-Mann Designwerks,"431 Dargan Street, Pittsburgh",5.0,ChIJ9eOYxW3yNIgRucjj5X3Zf3s,40.4613826,-79.9540572,consolidated
Penn Ave,Byham House,"3501 Liberty Avenue, Pittsburgh",5.0,ChIJ9fqUT7XzNIgRRWe82b_5ChY,40.4619632,-79.9646154,broad_filled
penn ave,Geppetto Cafe,"4121 Butler Street, Pittsburgh",4.7,ChIJ9y_Onk3yNIgRg1Zzijr0ge4,40.47008049999999,-79.9609069,consolidated
penn ave,Parklet,"3526 Butler Street, Pittsburgh",3.2,ChIJ9yfu6LTzNIgRWizDxMf70Ek,40.46475040000001,-79.9656509,bounding_only
penn ave,The Laundry Club,"3824 Penn Avenue, Pittsburgh",4.5,ChIJ9zdNC8_zNIgRr-Nlc7gcLi0,40.4646096,-79.9605157,consolidated
liberty ave,Baby Loves Tacos,"4508 Liberty Avenue, Pittsburgh",4.7,ChIJA0IuNUbyNIgRuikoLdVougk,40.4628172,-79.95158440000002,bounding_only
liberty ave,Pittsburgh,Pittsburgh,,ChIJA4UGSG_xNIgRNBuiWqEV-Y0,40.44062479999999,-79.9958864,consolidated
41st St,Look Out Street Parklet,Pittsburgh,3.8,ChIJA5qjRLrzNIgR2Rih9fdDh5o,40.46934299999999,-79.9770565,broad_filled
penn ave,Rite Aid Pharmacy,"3939 Butler Street, Pittsburgh",3.0,ChIJA94FKyHzNIgRhU5XowX1Nns,40.4689933,-79.9633365,consolidated
penn ave,Mobile PGH First Impression,"4106 Penn Avenue, Pittsburgh",,ChIJAQA1M0_yNIgRTUR-gI0Z_bo,40.46558719999999,-79.9546917,bounding_only
penn ave,Studio Capezzuti,"3583 Butler Street, Pittsburgh",,ChIJAQAw67TzNIgR_x0ubdVxZco,40.4652356,-79.9656509,bounding_only
liberty ave,PITTSBURGH YOGA BOUTIQUE,"626 Edmond Street, Pittsburgh",,ChIJAQBPiTjyNIgRhVxcxTUJjS8,40.4592056,-79.9497308,bounding_only
Plummer St,"Code.sys Code Consulting, Inc.","321 Grant Avenue, Pittsburgh",3.5,ChIJASojxkvyNIgR4r0gpoytEmM,40.47971889999999,-79.9728868,broad_filled
penn ave,The Traveling Photo Booth,"256 37th Street, Pittsburgh",5.0,ChIJAVe4kU7yNIgRvwBXImt-j9I,40.4648932,-79.96332919999999,consolidated
34th St,Oak's Auto/Truck Service LLC,"19 35th Street, Pittsburgh",3.4,ChIJAVlEGJ7zNIgRsgeTUVp4YXk,40.4661674,-79.9709243,broad_filled
Penn Ave,Palate Partners School of Wine & Spirits,"3401 Liberty Avenue, Pittsburgh",4.0,ChIJAXOSXbXzNIgRi1dLM_0UyOs,40.4619066,-79.9655698,broad_filled
butler st,Headstorm,"181 42nd Street, Pittsburgh",5.0,ChIJAZdYfPrzNIgRKzs16Wh6qqQ,40.47066969999999,-79.9611625,bounding_only
penn ave,Jovie of Pittsburgh,"3706 Butler Street, Pittsburgh",5.0,ChIJA_D0dbuLNIgR0SCo0jyS84I,40.4663709,-79.9643997,consolidated
penn ave,Detailed auto creations,"4100 Davison Street, Pittsburgh",4.8,ChIJAdxeJ1tnNIgRl6xj76b7H70,40.4690402,-79.9589185,consolidated
penn ave,Cheryl Neusch,"4111 Penn Avenue, Pittsburgh",,ChIJAfYoMk_yNIgR4EqlLbUKHAE,40.4658925,-79.9548051,bounding_only
penn ave,Megan Eberhart,"4111 Penn Avenue, Pittsburgh",,ChIJAfYoMk_yNIgRCS0abE8Lqf8,40.4658925,-79.9548051,bounding_only
penn ave,Elisha Dubich,"4111 Penn Avenue, Pittsburgh",,ChIJAfYoMk_yNIgRDUivOOo9ABc,40.4658925,-79.9548051,bounding_only
penn ave,Alayna Gradisek,"4111 Penn Avenue, Pittsburgh",,ChIJAfYoMk_yNIgRK9hzVvGLaW0,40.4658925,-79.9548051,bounding_only
penn ave,Adam Christian Tripp,"4111 Penn Avenue, Pittsburgh",,ChIJAfYoMk_yNIgRgZG4F0xw-aU,40.4658925,-79.9548051,bounding_only
penn ave,Allison Pavlov,"4111 Penn Avenue, Pittsburgh",,ChIJAfYoMk_yNIgRjVb7kAWt8XM,40.4658925,-79.9548051,bounding_only
liberty ave,dradamtripp,"4111 Penn Avenue, Pittsburgh",,ChIJAfYoMk_yNIgRvSdyxo2XJho,40.4658925,-79.9548051,bounding_only
penn ave,Diane Hranicky,"4111 Penn Avenue, Pittsburgh",,ChIJAfYoMk_yNIgRveX0VWvE3k4,40.4658925,-79.9548051,bounding_only
penn ave,Dr. Michael Marcsisin,"4111 Penn Avenue, Pittsburgh",,ChIJAfYoMk_yNIgRwwWVhOujBUA,40.4658925,-79.9548051,bounding_only
48th St,Avanti Insurance Group,"226 Grant Avenue, Millvale",5.0,ChIJAfoBBqnzNIgRBIrEE7hT4l4,40.47939209999999,-79.9717746,broad_filled
penn ave,Central Atlantic States Association of Food and Drug Officials,"3901 Penn Avenue, Pittsburgh",,ChIJB-Hl-kvyNIgRxFD5V4_SC-A,40.46544279999999,-79.9590078,consolidated
penn ave,One Point One Yoga Annex,"3702 Penn Avenue, Pittsburgh",5.0,ChIJB-khxGTzNIgR60GmWF3BQLI,40.4643146,-79.9622894,consolidated
penn ave,Sochats Laverne L,"4106 Butler Street, Pittsburgh",,ChIJB0UroU3yNIgRm0ztZyahI2s,40.46959689999999,-79.9608578,consolidated
penn ave,Field Day,"3706 Butler Street, Pittsburgh",4.8,ChIJB0uhKaHzNIgRFQoE7SpNQZA,40.4663709,-79.9643997,bounding_only
liberty ave,"Dr. Peter H. Shaw, MD","4401 Penn Avenue, Pittsburgh",,ChIJB4nS8UXyNIgRACa9W7gg8C4,40.4661227,-79.9533866,bounding_only
liberty ave,Goyal Rakesh K MD,"4401 Penn Avenue, Pittsburgh",,ChIJB4nS8UXyNIgRD7lirdi4JmU,40.466019,-79.953125,bounding_only
liberty ave,Adams Richard J MD,"4401 Penn Avenue, Pittsburgh",,ChIJB4nS8UXyNIgRFEkAPdjObSk,40.4661227,-79.9533866,bounding_only
liberty ave,Schultz Brian R MD,"4401 Penn Avenue, Pittsburgh",,ChIJB4nS8UXyNIgRXlwcOylF1QY,40.4661227,-79.9533866,bounding_only
liberty ave,"Jean M. Tersak, MD","4401 Penn Avenue, Pittsburgh",5.0,ChIJB4nS8UXyNIgRYYl5MdKYCEE,40.4661227,-79.9533866,bounding_only
liberty ave,Cohen Debra E MD,"4401 Penn Avenue, Pittsburgh",,ChIJB4nS8UXyNIgRYfgp-XKpLPI,40.4661227,-79.9533866,bounding_only
liberty ave,"Dr. Regina I. Jakacki, MD","4401 Penn Avenue, Pittsburgh",,ChIJB4nS8UXyNIgRcDTinwK5fLc,40.4661227,-79.9533866,bounding_only
liberty ave,"Dr. Lakshmanan Krishnamurti, MD","4401 Penn Avenue, Pittsburgh",,ChIJB4nS8UXyNIgRlG2c7FvpN34,40.466019,-79.953125,bounding_only
liberty ave,Kolls Jay K,"3520 Penn Avenue, Pittsburgh",,ChIJB4nS8UXyNIgRw-NKRky1NbU,40.4660312,-79.9535037,bounding_only
49th St,Mt Troy United Church of Christ,"2023 East Homestead Street, Pittsburgh",3.0,ChIJB5c_y7zzNIgRC-Nvwsd2vtc,40.472973,-79.98246999999999,broad_filled
butler st,Iron City Rinzai Pittsburgh Zen Practice Group,"137 41st Street, Pittsburgh",,ChIJB8TY2U3vNIgR5MrkX9FSv_U,40.4710408,-79.96323629999999,consolidated
penn ave,TRYP by Wyndham Pittsburgh/Lawrenceville Boutique Hotel,"177 40th Street, Pittsburgh",3.9,ChIJBUcjPU3yNIgREZC19k0yqNw,40.4695202,-79.9627999,consolidated
penn ave,"Richard D. Bruehlman, MD","3937 Butler Street, Pittsburgh",,ChIJBV9jWw3zNIgRJ7Ae87YJu4k,40.4689045,-79.9634657,consolidated
Liberty Ave,Radish Studio,"3635 Bethoven Street, Pittsburgh",5.0,ChIJBZ0xazbyNIgR9bDTTm88Xio,40.4593934,-79.95738039999999,broad_filled
liberty ave,uBreakiFix - Phone and Computer Repair,"4718 Liberty Avenue, Pittsburgh",4.2,ChIJB_HjEUfyNIgRD5tY2m91LgE,40.4615752,-79.9494414,consolidated
penn ave,Vanity you BOUTIQUE,"4072 Butler Street, Pittsburgh",,ChIJBa1zp03yNIgRiMcUK0CDzcg,40.4694806,-79.9611625,consolidated
liberty ave,Axel Rimorin House 2,"Bloomfield Homes, Block 3 Lot 17 Section 2, Pittsburgh",,ChIJBcLyDgDzNIgR3yNYwNtI6Jo,40.462472,-79.950266,bounding_only
penn ave,Butler St + 43rd,United States,,ChIJBfs6jk3yNIgRILnEPo2oMkU,40.470478,-79.96037299999999,consolidated
34th St,Pittsburgh Tire,"3301 Smallman Street, Pittsburgh",4.4,ChIJBxjV3LXzNIgRqDDOEmbiDdc,40.46285090000001,-79.969315,broad_filled
liberty ave,"Dr. Michael J. Burkitt, MD","4727 Friendship Avenue, Pittsburgh",,ChIJBz2E0EbyNIgR1JGpqiZthoA,40.46316929999999,-79.9479092,consolidated
liberty ave,"Dr. Mohammad A. Rana, MD","4727 Friendship Avenue, Pittsburgh",,ChIJBz2E0EbyNIgRY9MU7rdBVaw,40.4632342,-79.94816809999999,consolidated
liberty ave,"Dr. Amy I. Kim, MD","4727 Friendship Avenue, Pittsburgh",,ChIJBz2E0EbyNIgRmav-vFgPyMY,40.4632342,-79.94816809999999,consolidated
penn ave,"Evolve Coaching, Inc.","3706 Butler Street, Pittsburgh",,ChIJC0kalG3xNIgR2N69h4R0YB0,40.4663709,-79.9643997,consolidated
liberty ave,Shursave IGA,"4401 Liberty Avenue, Pittsburgh",3.9,ChIJC3UCKUbyNIgRkUpADXjGZwA,40.4641129,-79.9525051,consolidated
penn ave,So Punk Ink,"3524 Butler Street Floor 3, Pittsburgh",,ChIJC3r4IgnzNIgRy1x0PZHRnLA,40.4646806,-79.9656859,bounding_only
34th st,Oyster Creative Co.,"3614 Smallman Street, Pittsburgh",5.0,ChIJC8Ag39fzNIgRg5McknOO5lk,40.4664289,-79.9666142,consolidated
51st st,Asgard Raw Dog & Cat Food,"10 Sedgwick Street, Pittsburgh",4.7,ChIJC8pHiajzNIgRZT-3zgGzF38,40.4796371,-79.9744644,consolidated
penn ave,Allegheny Tuberculosis Program,"3901 Penn Avenue, Pittsburgh",,ChIJC9ch6kvyNIgRH1ZV86Ht1MY,40.4654045,-79.95903969999999,consolidated
penn ave,Public Drinking Water-Waste,"3901 Penn Avenue, Pittsburgh",,ChIJC9ch6kvyNIgRXVtUcR9gYSQ,40.46525010000001,-79.95941309999999,consolidated
liberty ave,Liberty Ave + Main St (Bloomfield Bridge),United States,,ChIJCREBhUjyNIgRUyz1dJ-W4RU,40.463497,-79.95336499999999,bounding_only
48th St,Eidenmiller Real Estate,"322 Grant Avenue, Pittsburgh",,ChIJCRoOVqjzNIgRK5ILDppehIk,40.4798513,-79.9727868,broad_filled
penn ave,Knowing Place,"3824 Penn Avenue Unit B, Pittsburgh",5.0,ChIJCUIz7BjzNIgRarpmZ97tDng,40.4646096,-79.9605157,consolidated
Liberty Ave,Shelton Design//Build,"4805 Penn Avenue, Pittsburgh",4.6,ChIJCUbw6EPyNIgRUdwzL9xGzm4,40.46563609999999,-79.9460291,broad_filled
liberty ave,Tobacco Outlet,"4501 Liberty Avenue, Pittsburgh",4.5,ChIJCVIdN0byNIgR4pexPEWxvFY,40.463198,-79.9516007,consolidated
penn ave,Emport LLC,"3706 Butler Street, Pittsburgh",,ChIJCWDHc1LyNIgRLE-vzgr6R_g,40.4663709,-79.9643997,bounding_only
Plummer St,Jack's Discount Videos,"316 Grant Avenue, Millvale",4.4,ChIJCXp6_6jzNIgRaR_E3n8oywo,40.4797227,-79.97263579999999,broad_filled
54th St,First United Church of Christ,"425 North Avenue, Pittsburgh",5.0,ChIJCZATkgfzNIgRIg2KQN-AZyo,40.48288220000001,-79.9733382,broad_filled
liberty ave,Better Stories Psychiatry,"4111 Penn Avenue, Pittsburgh",3.4,ChIJC_DTIJTzNIgRxNQFKqfdu0U,40.4659582,-79.9548239,bounding_only
penn ave,Fjord and Fable,"4112 Butler Street, Pittsburgh",5.0,ChIJCb74Fxy4qEcRWG6mvY90QEk,40.46986939999999,-79.96070089999999,consolidated
45th St,"Jonathan Michael Weiss, MD","111 Sheridan Street, Pittsburgh",,ChIJCcl9hK_zNIgRmIRw3WURI4c,40.4790076,-79.97099299999999,broad_filled
51st St,Yetter's Candies,"504 Grant Avenue, Pittsburgh",4.8,ChIJCdPiaKjzNIgRA7wptzOzD-E,40.480545,-79.974147,broad_filled
44th St,Subway,"124 Grant Avenue, Millvale",4.2,ChIJCfyoZ6nzNIgRL5QlxkTYtbE,40.4785009,-79.97008439999999,broad_filled
butler st,Agustin home cleaning services LLC,Pittsburgh,,ChIJCx_Xb17zNIgRY6wcfM2XYbc,40.4717898,-79.961373,bounding_only
53rd St,"Telephone of the Wind, Millvale","115 Sedgwick Street, Pittsburgh",5.0,ChIJD-bfbgDzNIgRrRzKDEz4E7I,40.4809858,-79.9737786,broad_filled
54th St,Superior Sign Service LLC,"410 North Avenue, Pittsburgh",3.3,ChIJD3brE-vyNIgROKwz-isIeA0,40.48236970000001,-79.9733834,broad_filled
Liberty Ave,Serving Solutions,"4816 Dearborn Street, Pittsburgh",,ChIJD57xwEPyNIgR398qvm8aUQ8,40.46594690000001,-79.9456658,broad_filled
butler st,Quantum Theatre,"212 45th Street, Pittsburgh",4.8,ChIJD6Cbp3byNIgRMFIZvPNbDTs,40.4716528,-79.95918549999999,consolidated
penn ave,Penn Vape Wellness,"4067 Penn Avenue, Pittsburgh",4.7,ChIJD6Zi9HHzNIgRJxl-5yWY_tw,40.465712,-79.955466,bounding_only
penn ave,Spilsbury Drapery Supply,"3809 Penn Avenue, Pittsburgh",4.8,ChIJD8SLoEvyNIgRs1f1MwNTHkM,40.4647376,-79.96118630000001,consolidated
Stanton Ave,MT Troy Rd + Lonsdale,United States,,ChIJDQfp0KLzNIgRqoIM5_SMxVk,40.47376999999999,-79.984078,broad_filled
penn ave,Macaron Bar Lawrenceville,"3629 Butler Street, Pittsburgh",4.7,ChIJDRzTaXTyNIgRr-Lofpxky2w,40.4662706,-79.9649122,consolidated
Liberty Ave,Community Preschool and Nursery,"4809 Penn Avenue, Pittsburgh",3.4,ChIJDVgE6EPyNIgRqqj7M1URt6k,40.4654755,-79.9458348,broad_filled
liberty ave,"Aleita Hermanowski, Copywriter","4622 Panama Way, Pittsburgh",,ChIJDX-tD93zNIgR8q1dhkqbto4,40.4619287,-79.95024339999999,bounding_only
penn ave,Iron City Bikes Lawrenceville,"3822 Butler Street, Pittsburgh",4.9,ChIJDX4Zs0zyNIgRyZul7g-px6g,40.4671337,-79.96387059999999,consolidated
penn ave,Penn Ave + 36th,United States,,ChIJDYpgLEvyNIgRt2Ugvj6izyw,40.46424699999999,-79.963848,consolidated
Plummer St,Mr. Smalls Theatre,"400 Lincoln Avenue, Millvale",4.7,ChIJDZ5sNKjzNIgR5QIcsD-M-e4,40.48081850000001,-79.97224949999999,broad_filled
Plummer St,Funhouse Theaters Inc,"400 Lincoln Avenue Basement, Millvale",5.0,ChIJDZ5sNKjzNIgRpN41omfkT_Y,40.4808548,-79.9722639,broad_filled
penn ave,The Sōl Collective at Steel House Cycle,"4100 Butler Street FL 1, Pittsburgh",,ChIJDZavJlvzNIgRs_FNZF5CM5g,40.469382,-79.96105299999999,consolidated
butler st,Café102,"4314 Butler Street, Pittsburgh",4.9,ChIJDZm6gVjzNIgRpxNu1EcVUE0,40.4709828,-79.95997129999999,consolidated
mccandless ave,Civil Engineering Design & Consulting,"141 Howard Street, Pittsburgh",,ChIJDavT4mvzNIgRrs8lq7y8RQo,40.4809356,-79.975306,consolidated
liberty ave,Peace of Time Wellness,"4748 Liberty Avenue, Pittsburgh",4.4,ChIJDcTRzHbzNIgRfL9w4qVku8c,40.4610943,-79.94844119999999,bounding_only
penn ave,Dijlah Restaurant and Cafe,"4130 Butler Street, Pittsburgh",4.2,ChIJDxKskE3yNIgRZVoDJ9pI2OE,40.4701807,-79.9605352,consolidated
34th St,Aurora,"50 33rd Street, Pittsburgh",4.4,ChIJDxVAs7fzNIgR9tjdx8GWnUU,40.4642395,-79.97217599999999,broad_filled
mccandless ave,Hinds Site,"17 Johnson Street, Millvale",5.0,ChIJE3yVEKfzNIgRKQ6Ji4qEmgY,40.4810982,-79.97891659999999,consolidated
butler st,"Renee Jennings, MA, MSW, LCSW","145 44th Street, Pittsburgh",5.0,ChIJE5qBFP_xNIgRYZZ8dVb9uFE,40.4728078,-79.9613218,bounding_only
Fisk St,MT Troy Rd + Kinkura,United States,,ChIJE74lQZ_zNIgRKJ-CtssWfjA,40.4795,-79.98763,broad_filled
butler st,Nanban,"4407 Butler Street, Pittsburgh",4.3,ChIJE8F5jc3zNIgRv9cjRb4OUzA,40.4717953,-79.9598164,consolidated
butler st,Children's Hospital of Pittsburgh Foundation,"105 40th Street, Pittsburgh",5.0,ChIJERM1AUPyNIgRKm0kesDgP7g,40.4713134,-79.9650802,consolidated
Plummer St,Creative Citizen studios,"312 Grant Avenue, Pittsburgh",,ChIJEUIB4LfzNIgR-XFRhE0gwjs,40.47972609999999,-79.97263099999999,broad_filled
penn ave,3 Rivers Wet Weather Inc,"3901 Penn Avenue #3, Pittsburgh",3.8,ChIJEXBL8kvyNIgRCNYq6uHVnpw,40.4657366,-79.95951629999999,consolidated
penn ave,Allegheny County Labs Department,"3901 Penn Avenue #8, Pittsburgh",,ChIJEXBL8kvyNIgRvG5meorVzL0,40.46548609999999,-79.959729,consolidated
liberty ave,Kula Industries & Streekers Vintage,"4124 Main Street, Pittsburgh",5.0,ChIJEwRSfWXzNIgR7P5By1tuSYM,40.4649469,-79.9544568,bounding_only
penn ave,40th St + Davidson St FS,United States,,ChIJEx-uXkzyNIgR0pMnu5dmq5c,40.467651,-79.96094,consolidated
penn ave,T Minus Studios,"3706 Butler Street, Pittsburgh",5.0,ChIJExTp1FPzNIgRtLdowSZuBK8,40.4663709,-79.9643997,bounding_only
48th St,McWalker Yarns,"303 Grant Avenue, Pittsburgh",4.8,ChIJEy7rom_zNIgRyffLte8iKL8,40.479234,-79.9722891,broad_filled
penn ave,Phoenix Chinese SPA,"4309 Butler Street, Pittsburgh",3.8,ChIJF1DXi03yNIgRrbmobyLOXsg,40.47099860000001,-79.9602786,consolidated
liberty ave,Caliente Pizza & Drafthouse - Bloomfield,"4624 Liberty Avenue, Pittsburgh",3.8,ChIJF27Hp0fyNIgRnZHhBa75CIw,40.46203579999999,-79.9501025,consolidated
liberty ave,Friendship Ave + Pearl St,United States,,ChIJF5Ci7kbyNIgR_GZyhXDeAbQ,40.463627,-79.949135,bounding_only
Butler St,The Pitch on Butler,"4717 Butler Street, Pittsburgh",4.8,ChIJF8KnYiTzNIgRjMbh5KbayAA,40.47458589999999,-79.9579452,broad_filled
Butler St,ATM,"4717 Butler Street, Pittsburgh",,ChIJF8kQkE3yNIgR0y8Qh98SYJw,40.4745713,-79.95793619999999,broad_filled
butler st,Rosie's Workshop PGH,"4322 Butler Street, Pittsburgh",5.0,ChIJF9Db3BvzNIgR02GKkRcHB6s,40.4711625,-79.9598616,consolidated
McCandless Ave,Millvale Lanes,"523 Lincoln Avenue, Millvale",4.2,ChIJF9KOFqjzNIgRZTFvyGDO8pE,40.481462,-79.974139,broad_filled
butler st,Rainbow Row,"119 41st Street, Pittsburgh",4.3,ChIJFQh0j7TzNIgRve9Smu3rc34,40.471287,-79.9638069,consolidated
52nd St,Joyce Lee Beauty Salon,"2517 Mount Troy Road, Pittsburgh",5.0,ChIJFRHUz6LzNIgRSPGv1Ru6FWE,40.47368539999999,-79.9843405,broad_filled
liberty ave,Rite Aid Pharmacy,"4411 Howley Street, Pittsburgh",5.0,ChIJFSwiHUbyNIgRKcNIyZd8tVc,40.464623,-79.95270049999999,consolidated
liberty ave,"Dr. Jason P. Thomas, MD","4727 Friendship Avenue, Pittsburgh",,ChIJFUbf2kbyNIgR1ll5loi9pCc,40.4632342,-79.94816809999999,consolidated
liberty ave,"Dr. Chandra R. Polam, MD","4727 Friendship Avenue, Pittsburgh",,ChIJFUbf2kbyNIgRIu7MSvoWaQU,40.4632342,-79.94816809999999,consolidated
liberty ave,Caffé Mona La Bistro,"4200 Penn Avenue, Pittsburgh",4.5,ChIJFWbwNU_yNIgRFCEuSZi60Es,40.46567799999999,-79.9542656,bounding_only
penn ave,"Amery Treble-Barna, PhD","4117 Penn Avenue, Pittsburgh",,ChIJFYmReBPzNIgR9ZoQBNzAtbg,40.4659347,-79.95472459999999,bounding_only
49th St,Reserve Athletic Association,"2107 Lonsdale Street, Pittsburgh",4.8,ChIJF_6Ae6TzNIgRl-27tGPoYuY,40.4755644,-79.9810814,broad_filled
butler st,Golden Gaia Tattoo,"4519 Butler Street, Pittsburgh",5.0,ChIJF_PcSkfzNIgRH5JiPOCtS0k,40.4727726,-79.9591573,consolidated
butler st,Steel Dragon,"100 43rd Street #113, Pittsburgh",5.0,ChIJFapuyVLyNIgRm7k-yEupG08,40.4728608,-79.9638889,consolidated
penn ave,A Street Called Straight Ministries,"3832 Mintwood Street, Pittsburgh",5.0,ChIJFd10TIjzNIgRxdron-huSIk,40.46372119999999,-79.95995769999999,bounding_only
penn ave,Peig Inc.,"3706 Butler Street, Pittsburgh",,ChIJFejIVhHzNIgRthxEZWO7S8s,40.4663709,-79.9643997,bounding_only
liberty ave,Anchor boxing,"4042 Liberty Avenue, Pittsburgh",5.0,ChIJFwdcZUTzNIgR5cK7k5v4C9M,40.4628245,-79.9557526,bounding_only
penn ave,The Mihok Law Firm,"3706 Butler Street Suite 306, Pittsburgh",5.0,ChIJFyCKQXTyNIgR-YA3TXSeG80,40.4663709,-79.9643997,consolidated
penn ave,The Slyrie Slirving Tennis Nest,"276 39th Street, Pittsburgh",5.0,ChIJG-cT1L7zNIgRwOaGTIwu3e0,40.4660166,-79.9608038,consolidated
52nd st,McCarthy Park,Millvale,,ChIJG2tG2KfzNIgRFZC1cH94LQg,40.4806544,-79.9753523,consolidated
penn ave,Cibo Dal Mio Cuore LLC,"420 42nd Street, Pittsburgh",,ChIJG4UDQKrzNIgRaqIOBoxjnes,40.46711210000001,-79.956231,bounding_only
liberty ave,"Dr. Rhett H. Lieberman, MD","4401 Penn Avenue, Pittsburgh",,ChIJG5CRGyryNIgRND1Xu4_04A8,40.4661227,-79.9533866,bounding_only
liberty ave,"Dr. Isabela C. Angelelli, MD","4401 Penn Avenue, Pittsburgh",,ChIJG5CRGyryNIgRVvKQMt6Mt-o,40.4661227,-79.9533866,bounding_only
penn ave,RE/MAX REAL ESTATE SOLUTIONS,"4020 Butler Street, Pittsburgh",5.0,ChIJG6HrBk3yNIgRmdsjZoSH3T8,40.4691,-79.96148730000002,consolidated
butler st,Otto Finn,"4607 Butler Street, Pittsburgh",5.0,ChIJG9FI9dfzNIgRPpCWxcnk3qE,40.47318509999999,-79.95884470000001,consolidated
penn ave,Bierport Tap Room,"4115 Butler Street, Pittsburgh",,ChIJGQ6Cn03yNIgRSWHu3t4dqjM,40.4699387,-79.9610646,bounding_only
37th St,Herrs Island North Park,Pittsburgh,4.7,ChIJGR0W8bDzNIgR_6CL-u6Dld0,40.4689668,-79.97364809999999,broad_filled
34th st,Pittsburgh Foundry & Machine,"20 36th Street, Pittsburgh",3.0,ChIJGUTIVLHzNIgRZgWs5gVoNRg,40.4669845,-79.96982589999999,consolidated
penn ave,higi,"3939 Butler Street, Pittsburgh",,ChIJGVnM1rLzNIgRQljB0e8c94c,40.46909660000001,-79.9633358,consolidated
liberty ave,Thyme Machine,"4613 Liberty Avenue, Pittsburgh",5.0,ChIJGWJzfQTzNIgRpdrWYW3X534,40.4625422,-79.9504255,bounding_only
45th St,Steel City Salt Company,"206 Grant Avenue, Millvale",5.0,ChIJGX2c5yzzNIgR0RwX-I4npxs,40.4790466,-79.971175,broad_filled
liberty ave,Iron Eden Inc,"4001 Lorigan Street, Pittsburgh",4.6,ChIJGYDk80jyNIgR3v2soh9Pt90,40.4615455,-79.955625,consolidated
penn ave,Arsenal Cider House & Wine Cellar,"300 39th Street, Pittsburgh",4.8,ChIJGamnn0vyNIgRa5owM6bs0y0,40.465108,-79.96092,consolidated
38th St,Three Rivers Rowing Association,"300 Waterfront Drive, Pittsburgh",4.8,ChIJGc4o7rnzNIgR6oYT2MDw7iE,40.466788,-79.9762859,broad_filled
butler st,Curiosity Shop,"100 43rd Street #116, Pittsburgh",4.9,ChIJGcEFy1LyNIgRBVPbKuKqgB8,40.47292839999999,-79.96385380000001,consolidated
butler st,TRVR Handwired Electronics,"100 43rd Street #112, Pittsburgh",,ChIJGcEFy1LyNIgRHVUD60B3CmA,40.4728738,-79.9638856,consolidated
liberty ave,Down Syndrome Center of Western PA,"4401 Penn Avenue Ste 3000, Pittsburgh",4.0,ChIJGdoNjinyNIgRvWN_rjT-4Ic,40.4660999,-79.95351959999999,bounding_only
butler st,Crystal Bead Bazaar,"4521 Butler Street, Pittsburgh",4.6,ChIJGeqcIlLyNIgRguraaFE4P9Q,40.4728071,-79.9589563,consolidated
liberty ave,Coinhub Bitcoin ATM Teller,"4411 Howley Street, Pittsburgh",,ChIJGftKdKvzNIgRjA1XUX7Gaoo,40.46469099999999,-79.95279,bounding_only
liberty ave,Strcula Jason E DMD,"4106 Penn Avenue, Pittsburgh",5.0,ChIJGfy4zEjyNIgR5skYLlJDWUw,40.46552459999999,-79.9546725,bounding_only
penn ave,"Juliette A Murcko, DMD","4106 Penn Avenue, Pittsburgh",4.1,ChIJGfy4zEjyNIgRhg_BgwP7gcA,40.46552459999999,-79.9546725,bounding_only
butler st,Bay 41,"115 41st Street, Pittsburgh",3.5,ChIJGwCKqlLyNIgRfVOkxrkUIBY,40.47160409999999,-79.9642964,consolidated
penn ave,Pita My Shawarma,"3716 Butler Street, Pittsburgh",4.4,ChIJGyHKJrP3NIgRsdwacPEvZDg,40.46660230000001,-79.96426,bounding_only
liberty ave,Pittsburgh Property Cleanouts,"4564 Penn Avenue, Pittsburgh",5.0,ChIJH-xbLUTyNIgRW8rM6brycRg,40.46578270000001,-79.94998629999999,bounding_only
liberty ave,Paddy Cake Bakery,"4763 Liberty Avenue, Pittsburgh",4.2,ChIJH200SEfyNIgRI_dMWj_LXhU,40.4611592,-79.9477275,bounding_only
48th St,APlus 40225,"300 Grant Avenue, Millvale",,ChIJH4QZBKnzNIgRTgmEbbb_KHg,40.479347,-79.972008,broad_filled
penn ave,CYA-Stephen Foster Community Center,"286 Main Street, Pittsburgh",4.2,ChIJH6L_JkzyNIgRkrFlE_EAj9o,40.46766799999999,-79.958663,consolidated
Plummer St,North Hills Community Outreach - Millvale Office,"416 Lincoln Avenue, Pittsburgh",4.7,ChIJH6QxSqjzNIgRSX5qeDa74Uo,40.4809551,-79.9726993,broad_filled
49th St,The ALS Association Western Pennsylvania Chapter,"416 Lincoln Avenue, Millvale",4.0,ChIJH6QxSqjzNIgRpbkiu_GPTn4,40.48094409999999,-79.9727036,broad_filled
penn ave,Salty Paws Pittsburgh,"4126 Butler Street, Pittsburgh",4.9,ChIJHQLMNqPzNIgRgbERJyh4kNo,40.4700202,-79.9605231,consolidated
liberty ave,Snelling Melissa,"4117 Main Street, Pittsburgh",,ChIJHQU4zEjyNIgR-EqAXCtd9EA,40.46539250000001,-79.9546514,bounding_only
liberty ave,Lautner Debra,"4117 Main Street, Pittsburgh",,ChIJHQU4zEjyNIgRIb4LcAKG79g,40.46539250000001,-79.9546514,bounding_only
liberty ave,Jacobs Joanne,"4117 Main Street, Pittsburgh",,ChIJHQU4zEjyNIgRJkqID0Q3FrQ,40.46539250000001,-79.9546514,bounding_only
52nd St,Millvale tobacco outlet,"225 North Avenue, Millvale",5.0,ChIJHUQ29jjzNIgRQtyC-K0qFgk,40.48159460000001,-79.9746018,broad_filled
liberty ave,Bloomfield Dek Hockey,"408 Ella Street, Pittsburgh",4.7,ChIJHV54e0jyNIgRZVJk_hlFGWU,40.46246699999999,-79.953516,consolidated
penn ave,Ragmonger,"3824 Penn Avenue Unit B, Pittsburgh",5.0,ChIJHVUQbWjzNIgRbnvCJ7sm2qg,40.4646762,-79.96045509999999,consolidated
liberty ave,higi,"4411 Howley Street, Pittsburgh",,ChIJHVx3HUbyNIgR1dwUSnl6fDA,40.46464,-79.9528,bounding_only
liberty ave,Sacred Heart of Jesus Store,"4515 Liberty Avenue, Pittsburgh",4.8,ChIJH_i1S0byNIgRd2Ev7lGOBGw,40.4629885,-79.951227,consolidated
43rd St,Linnea Marie Photography,"2131 Straubs Lane, Pittsburgh",5.0,ChIJHeFRw3NjM4gRHVzM9qungLQ,40.470324,-79.97867389999999,broad_filled
penn ave,Cranberry Plaza II LLC,"123 36th Street, Pittsburgh",,ChIJHfmdg7PzNIgRBfCv4b-POOM,40.4671374,-79.9669826,consolidated
penn ave,Carnegie Library of Pittsburgh - Lawrenceville,"279 Fisk Street, Pittsburgh",4.7,ChIJHwO5JEzyNIgRxnBpcMUX120,40.4676128,-79.9590515,consolidated
47th St,New Sun Rising,"112 East Sherman Street, Millvale",4.7,ChIJHx8qoanzNIgRDzwnYIvY5SU,40.4797979,-79.9713549,broad_filled
47th St,Millvale Food + Energy Hub,"112 East Sherman Street, Millvale",4.8,ChIJHx8qoanzNIgRJc4_A4E36GM,40.4799452,-79.9713307,broad_filled
liberty ave,drinks food music art & special events at brillobox,"4104 Penn Avenue, Pittsburgh",,ChIJI-DfzEjyNIgRYK8ywhk-zlk,40.46550499999999,-79.9547632,bounding_only
butler st,Cork Harbour Pub,"181 43rd Street, Pittsburgh",4.7,ChIJI0ynzUTzNIgR_z8-SOmMckE,40.4712592,-79.96087229999999,bounding_only
51st St,One Happy Flower Shop,"502 Grant Avenue, Millvale",5.0,ChIJI3BaaKjzNIgRW3UwerOrR7k,40.4805278,-79.9740814,broad_filled
liberty ave,Samantha Skelton Jewelry Design,"4049 Penn Avenue, Pittsburgh",4.6,ChIJI4PSLEnyNIgRcsiHldY4wFA,40.4657023,-79.9561192,bounding_only
penn ave,R Kyndall Development Group,"186 42nd Street, Pittsburgh",5.0,ChIJI73-7ZxiNIgRztvDVMtr-cQ,40.4704441,-79.9612604,consolidated
butler st,National Robotics Engineering Center,"10 40th Street, Pittsburgh",4.9,ChIJI8LyO63zNIgRvKb7FYwQ1MQ,40.4728736,-79.9650268,consolidated
liberty ave,"Dr. Nahmah A. Kim-Campbell, MD","4401 Penn Avenue, Pittsburgh",,ChIJIRzYXk_yNIgRNwlA9Fcobpg,40.4660999,-79.95351959999999,bounding_only
Plummer St,Millvale Boro Office,"501 Lincoln Avenue, Millvale",,ChIJIXBmQKjzNIgR0FG8ttUjMHk,40.4811062,-79.9735647,broad_filled
51st St,Millvale VFD Station 191,"501 Lincoln Avenue, Millvale",5.0,ChIJIXBmQKjzNIgR5AahyMeD1EQ,40.4811062,-79.9735647,broad_filled
43rd St,Pittsburgh Snow Removal,"211 Stanton Avenue, Pittsburgh",4.9,ChIJIYL2SKnzNIgROgt-FM7T8O4,40.4776209,-79.97082329999999,broad_filled
34th St,Warehouse,"19 35th Street, Pittsburgh",5.0,ChIJI_BVdOjzNIgRA_CeUzzuwXY,40.4660929,-79.9705912,broad_filled
liberty ave,"Dr. Prabir K. Mullick, MD","4608 Penn Avenue, Pittsburgh",4.0,ChIJIbsoO0TyNIgR1j2C75djFCQ,40.4657239,-79.9492016,consolidated
liberty ave,"Sharon L. Hovis, LSW",Pittsburgh,,ChIJIbsoO0TyNIgRgGc2me_WUjw,40.46578699999999,-79.94944249999999,bounding_only
liberty ave,"Dr. Manohar Shetty, MD","4608 Penn Avenue, Pittsburgh",5.0,ChIJIbsoO0TyNIgRt9S8BqA84tg,40.4657239,-79.9492016,consolidated
penn ave,"CRH Catering Co., Inc.","4110 Davison Street, Pittsburgh",1.9,ChIJId-e2U3yNIgR37cU6V2EEUU,40.46923100000001,-79.958733,consolidated
liberty ave,COMB. Salon,"4517 Liberty Avenue, Pittsburgh",5.0,ChIJId37ghTzNIgR9I7H29EZjjc,40.4630094,-79.9511105,bounding_only
43rd St,UA Local 542 Sprinklerfitters,"227 Stanton Avenue, Pittsburgh",5.0,ChIJIw1TN6nzNIgR84Wyie8wOdw,40.477802,-79.9713124,broad_filled
liberty ave,Ella St. Steps,"445 Ella Street, Bloomfield",4.5,ChIJIwCSCQDzNIgR0YuTHtSP28Y,40.46070069999999,-79.9537885,consolidated
butler st,Closet Rehab,"4400 Butler Street, Pittsburgh",5.0,ChIJIwcCUNJfNIgR0HOi9wCK4xc,40.4713622,-79.9594426,consolidated
penn ave,Silver Apple Gallery,"255 Main Street, Pittsburgh",5.0,ChIJIxU1wLHzNIgRwJjgQPCsakI,40.46867110000001,-79.959034,consolidated
butler st,Mello & Sons,"4405 Butler Street, Pittsburgh",5.0,ChIJIzBQbVLyNIgRrBPh9AbBoPI,40.4717501,-79.9598832,consolidated
49th St,Millvale Police Dept,"501 Lincoln Avenue, Millvale",,ChIJIzH5P6jzNIgRM8V8wByk4lE,40.4811032,-79.97365049999999,broad_filled
50th st,The Embassy,"Farragut Street, Millvale",5.0,ChIJJ-KInKjzNIgR2ZOCZKuQYdE,40.4791205,-79.97491029999999,consolidated
38th St,Three Rivers Water Trail Launch- Millvale Boat Launch,Millvale,4.0,ChIJJ19Ic8bzNIgR_DdEyJowmjs,40.469387,-79.9746488,broad_filled
34th St,Restaurant Depot,"86 35th Street, Pittsburgh",4.1,ChIJJ1t-88nzNIgRGWsaCFokhiY,40.4641889,-79.9700945,broad_filled
penn ave,CPR Certification Pittsburgh,"3700 Butler Street, Pittsburgh",4.9,ChIJJ1uqG_bzNIgRsK7MCjz-qMg,40.4662644,-79.9644211,bounding_only
51st St,Atkinson Beer Distributor,"315 North Avenue, Pittsburgh",4.5,ChIJJ53YHqjzNIgRxhmeAW5elL0,40.48217229999999,-79.9740195,broad_filled
penn ave,Penn Ave + 36th,United States,5.0,ChIJJ6cxK0vyNIgRSl88f8suxUs,40.46413099999999,-79.96403099999999,consolidated
liberty ave,Dirks Car Wash Bloomfield Touchless,"4052 Liberty Avenue, Pittsburgh",3.6,ChIJJ7E3VkjyNIgRWOhUFjEOn_U,40.4630268,-79.95515429999999,bounding_only
45th St,Millvale Free Fridge and Pantry,"213 Grant Avenue, Millvale",,ChIJJ93sG0bzNIgRR7f5ceQ-9vI,40.47885159999999,-79.97161609999999,broad_filled
penn ave,Stillpoint - Soto Zen,"137 41st Street, Pittsburgh",4.0,ChIJJ9h0Wk3yNIgR4u3WUgLXsrM,40.47102719999999,-79.9632428,consolidated
48th St,Anita New Look Wig Salon,"226 Grant Avenue, Pittsburgh",,ChIJJToPVGzzNIgRyTUvvjFXiRk,40.479392,-79.971775,broad_filled
liberty ave,V&T Nails,"4608 Liberty Avenue, Pittsburgh",5.0,ChIJJWROPd_zNIgRDcgKqIxysaI,40.4622779,-79.9506734,bounding_only
penn ave,Butler Street Derby,"4203 Butler Street, Pittsburgh",5.0,ChIJJYk8XXLzNIgRIZF7xOchKXs,40.47041189999999,-79.9606348,bounding_only
51st St,Grant Avenue Pocket Park G.A.P.P. (GAP Park),"518 Grant Avenue, Pittsburgh",3.9,ChIJJcWRcajzNIgRepfA08Ehy40,40.48082580000001,-79.9746389,broad_filled
penn ave,Blackbird Health,"3706 Butler Street, Pittsburgh",5.0,ChIJJcs8taFiNIgRaw_5Slzkr5c,40.4663709,-79.9643997,consolidated
penn ave,COLOMBINO Coffee/Food Truck,"3817 Butler Street, Pittsburgh",4.6,ChIJJdPcGIrzNIgR4he_3_nQQxM,40.4675693,-79.9642338,consolidated
penn ave,Trim Pittsburgh,"3508 Butler Street, Pittsburgh",4.7,ChIJJeehnXPyNIgRfy7Wc1y8RkE,40.46415399999999,-79.96598039999999,consolidated
liberty ave,Keystone Vapors Bloomfield,"4526 Liberty Avenue, Pittsburgh",4.8,ChIJJf-vJW_zNIgRXEFZyjue1Mo,40.46249950000001,-79.9511623,consolidated
liberty ave,Plexision,"4424 Penn Avenue Conference Room 1, Pittsburgh",5.0,ChIJJwdX90XyNIgRuWvh56SmTIw,40.4659071,-79.9526076,bounding_only
penn ave,Butler St + 39th,United States,,ChIJJy89tEzyNIgRA73t3fADJmk,40.467355,-79.963858,consolidated
liberty ave,Exercise Warehouse,"4042 Liberty Avenue, Pittsburgh",4.8,ChIJJzsfq0nyNIgRdjj2SxMOsEA,40.4629608,-79.9557154,bounding_only
55th St,MT Troy Rd + Fornof Ln,United States,,ChIJK-G9A6LzNIgRzq9gn7TikMo,40.478233,-79.98604399999999,broad_filled
penn ave,Penn Ave + 39th St,United States,,ChIJK-sLlkvyNIgRSU8HrTG4N8I,40.464861,-79.960202,consolidated
liberty ave,Smg/Santucci Upmc,"4747 Liberty Avenue, Pittsburgh",,ChIJK29kPkfyNIgRfBZMpulg9Mo,40.4615124,-79.9484087,bounding_only
butler st,Freedom Gateway Bitcoin ATM,"4327 Butler Street, Pittsburgh",,ChIJK40Sf37zNIgR1sVnLcEytpQ,40.4715084,-79.9600646,bounding_only
penn ave,THE WAINWRIGH,"3607 Butler Street, Pittsburgh",,ChIJK5HKvbTzNIgRpJeoHO5gN6Y,40.46566409999999,-79.96528579999999,bounding_only
butler st,Three Rivers Marketing,"4327 Butler Street, Pittsburgh",,ChIJK62zVILzNIgRvSRbu_0V2Zc,40.4715084,-79.9600646,bounding_only
Penn Ave,The Church Brew Works,"3525 Liberty Avenue, Pittsburgh",4.3,ChIJKT2mUrXzNIgRP_zITVG6-1s,40.46198609999999,-79.9640806,broad_filled
48th St,Meals On Wheels,"122 Butler Street, Millvale",,ChIJKTvsUqjzNIgRbeOAasGlwXk,40.4802943,-79.9724359,broad_filled
penn ave,Main Street Diner,"Lawrenceville Market House, 4112 Butler Street, Pittsburgh",5.0,ChIJKUavOQDzNIgRZfPUxuFJsJQ,40.4698449,-79.9607555,consolidated
penn ave,Lauren Cotherman,"310 Fisk Street, Pittsburgh",,ChIJKVOJq07yNIgR-XTcl0ozLk4,40.4660913,-79.9581117,consolidated
penn ave,Denise A White,"310 Fisk Street, Pittsburgh",,ChIJKVOJq07yNIgRictki2d4HFo,40.4660913,-79.9581117,consolidated
penn ave,Huai Yong Cheng,"310 Fisk Street, Pittsburgh",,ChIJKVOJq07yNIgRz16wS7mxWTI,40.4660913,-79.9581117,consolidated
liberty ave,Songbird Artistry,"4316 Penn Avenue, Pittsburgh",5.0,ChIJKVW5TU_yNIgRU0XyKFJON7k,40.46570380000001,-79.9536538,bounding_only
liberty ave,Treasure's Tree Removal,"4433 Howley Street, Pittsburgh",5.0,ChIJKYOiMsw3agIRo31PkS4ZpBA,40.46494289999999,-79.9522278,bounding_only
penn ave,Grey Box Theatre,"3595 Butler Street, Pittsburgh",3.6,ChIJKYQMlbTzNIgRgs2tG9n9roU,40.4653646,-79.9655398,consolidated
liberty ave,"Dr. Angelo D. Lupariello, MD","4564 Penn Avenue, Pittsburgh",,ChIJKa5FLUTyNIgRKLJRviKucKs,40.4657738,-79.9499972,bounding_only
liberty ave,Advanced Kidney Care Medical,"4564 Penn Avenue, Pittsburgh",,ChIJKa5FLUTyNIgRuyCIdah3Oi8,40.4657357,-79.9499903,consolidated
34th St,BCBS,"3410 Charlotte Street, Pittsburgh",4.0,ChIJKd6INqbzNIgRRTDSnrDYg4g,40.4632478,-79.9677706,broad_filled
penn ave,Foundation Tattoo Parlour,"4020 Butler Street Floor 2, Pittsburgh",4.9,ChIJKfmmqEfyNIgRA0jeZO29AV8,40.4691015,-79.9614952,consolidated
penn ave,"Sam's Vintage, LLC","3701 Butler Street FRONT, Pittsburgh",5.0,ChIJKxwrJw_zNIgRKsayNzOq_NA,40.4663887,-79.9647298,consolidated
butler st,Pittsburgh Mobile Mechanic Co.,"4307 Willow Street, Pittsburgh",5.0,ChIJL-kVR1bzNIgRqiuoQyWUrGA,40.472691,-79.96281689999999,consolidated
45th St,Family Dollar,"123 Lincoln Avenue, Millvale",3.6,ChIJL0J32qvzNIgRdSy9vIY08GY,40.47889670000001,-79.9697668,broad_filled
liberty ave,Urban Cottage,"4602 Penn Avenue, Pittsburgh",5.0,ChIJL2ZZMETyNIgRpiGoDxtBfe0,40.46572990000001,-79.9494576,bounding_only
penn ave,Starbucks,"3931 Butler Street, Pittsburgh",4.0,ChIJL3UOHgDzNIgRhdeesD5X4rE,40.4683131,-79.9631632,consolidated
penn ave,Condado Tacos,"4300 Butler Street, Pittsburgh",4.6,ChIJL3ujxP3zNIgR9aqygXcUHAY,40.4706352,-79.9601584,consolidated
penn ave,Zabelsky Dennis DDS,"3712 Main Street, Pittsburgh",,ChIJL4dBm07yNIgRfiqruycv1FM,40.46762500000001,-79.958107,consolidated
penn ave,McDonough's Antiques,"3617 Butler Street, Pittsburgh",4.3,ChIJLSSnpLTzNIgRq8V1rVS_31I,40.46593000000001,-79.9650705,consolidated
penn ave,Scott Electric Lawrenceville,"24 39th Street, Pittsburgh",4.3,ChIJLTnvtUzyNIgRCdkX91QrI78,40.4703046,-79.9670452,consolidated
penn ave,Lawn Man Inc,"4609 Carlton Street, Pittsburgh",3.0,ChIJLWMe0lHyNIgR8RFcLbLn87o,40.47123619999999,-79.9558965,consolidated
liberty ave,Muchacho Home Pittsburgh,"4571 Carroll Street, Pittsburgh",,ChIJLX4nnvnzNIgRPBm4ofsysUY,40.46533509999999,-79.94988149999999,bounding_only
penn ave,Bike Pittsburgh,"188 43rd Street #1, Pittsburgh",4.1,ChIJLXqik0XxNIgRrW_V_qteKvQ,40.4708958,-79.9609175,consolidated
penn ave,Happenstance Cafe,"3832 Penn Avenue, Pittsburgh",5.0,ChIJL_Y8Tr7zNIgRDXMVWjkO3ds,40.4646337,-79.96027149999999,consolidated
penn ave,Penn Ave + Main St,United States,3.0,ChIJL_yP1EjyNIgRcSJtPx-3JfU,40.465573,-79.955463,bounding_only
hatfield st,Rick Horn Construction Inc,"933 Stanton Avenue, Pittsburgh",4.0,ChIJLcQNj6DzNIgRSUYMtTTUMtY,40.4824967,-79.9836316,consolidated
51st St,Carrie Anne Powell Floral Designs,"502 Grant Avenue, Millvale",4.2,ChIJLcUsJ1T6NIgRfVv2RL_XoaA,40.48061,-79.973968,broad_filled
penn ave,Nancy Mosser Casting,"3583 Butler Street, Pittsburgh",4.8,ChIJLcfG6rTzNIgRivSpALQ3Th0,40.4652356,-79.9656509,consolidated
penn ave,be Galleries,"3583 Butler Street, Pittsburgh",4.3,ChIJLcfG6rTzNIgRo2SawReSw8c,40.4652474,-79.9655775,consolidated
penn ave,noma.ai,"3700 Butler Street, Pittsburgh",,ChIJLdaANlfMWaURLLWXEsNoLRU,40.4662644,-79.9644211,bounding_only
liberty ave,"Bloomfield Dental - Dana M. Monahan DDS, LLC","4760 Liberty Avenue, Pittsburgh",4.7,ChIJLerDRUfyNIgR2qGyInIk3nY,40.46092919999999,-79.9480298,bounding_only
liberty ave,Ginza Japanese Restaurant,"4734 Liberty Avenue, Pittsburgh",4.5,ChIJLfzKFEfyNIgR6L1Z3Rj0Q2c,40.4613895,-79.9488118,consolidated
liberty ave,Walsh Thomas L MD,"4727 Friendship Avenue, Pittsburgh",,ChIJM0vj-UXyNIgR7OLl04R15Uw,40.46316929999999,-79.9479092,consolidated
liberty ave,"Dr. Meera Sareen, MD","4727 Friendship Avenue, Pittsburgh",5.0,ChIJM0vj-UXyNIgRD0xsQJczbQg,40.4632342,-79.94816809999999,consolidated
liberty ave,"Dr. Jedediah Mcclintic, MD","4727 Friendship Avenue, Pittsburgh",,ChIJM0vj-UXyNIgRMb1IyA_4gIQ,40.4632342,-79.94816809999999,consolidated
liberty ave,Sealy Mary Lynn MD,"4727 Friendship Avenue Suite 200, Pittsburgh",,ChIJM0vj-UXyNIgRXg9tsfnusFg,40.4632342,-79.94816809999999,consolidated
liberty ave,"Dr. Mobolaji A. Ige, MD","4727 Friendship Avenue, Pittsburgh",,ChIJM0vj-UXyNIgRhygT7OkTCC8,40.4632342,-79.94816809999999,consolidated
liberty ave,"Dr. Yahaira L. Lopez Arredondo, MD","4727 Friendship Avenue, Pittsburgh",,ChIJM0vj-UXyNIgRvvyvDMJJXso,40.4632342,-79.94816809999999,consolidated
liberty ave,"Dr. James H. Skorczewski Jr, DO","4727 Friendship Avenue, Pittsburgh",,ChIJM0vj-UXyNIgRxCuMUHKhVKE,40.4632342,-79.94816809999999,consolidated
liberty ave,Martin Fred MD,"4727 Friendship Avenue Suite 200, Pittsburgh",,ChIJM0vj-UXyNIgRzu-3XrBCD0E,40.4632342,-79.94816809999999,consolidated
penn ave,Capuchin Friars Development,"220 37th Street, Pittsburgh",4.8,ChIJM3MQtLTzNIgRHBZ6ibWks2A,40.4657442,-79.96463709999999,consolidated
penn ave,Province of St. Augustine,"220 37th Street, Pittsburgh",,ChIJM3MQtLTzNIgRn2k3eOdXSGU,40.4657442,-79.96463709999999,consolidated
penn ave,Archconfraternity of Christian,"220 37th Street, Pittsburgh",,ChIJM3MQtLTzNIgRw0k3KO1Ycbw,40.4657442,-79.96463709999999,consolidated
52nd st,Ossman Heating & Cooling,"25 Fornoff Street, Pittsburgh",5.0,ChIJMQ4SKqbzNIgRp14QlCh_us4,40.4802693,-79.9748994,consolidated
penn ave,Joule Design,"32 39th Street, Pittsburgh",,ChIJMQyfbU3yNIgR-yzKRi5DD-k,40.4689371,-79.9656795,consolidated
butler st,"George Bernard Sestric, MD","193 43rd Street, Pittsburgh",3.5,ChIJMSaviE3yNIgRGotf3_LmTBw,40.4708505,-79.9604617,bounding_only
butler st,"Dr. William Lamb Jr, DO","193 43rd Street, Pittsburgh",,ChIJMSaviE3yNIgRTyRgeX-wMe8,40.4709214,-79.9604064,bounding_only
butler st,"Dr. Philip J. Cichon, MD","193 43rd Street, Pittsburgh",5.0,ChIJMSaviE3yNIgRwchj3-0pWvo,40.4708505,-79.96046179999999,consolidated
50th St,Female Trouble Tattoo,"507 Grant Avenue Floor 1, Millvale",4.5,ChIJMU49ez7zNIgRCyDxAI1mSUU,40.4804816,-79.9743893,broad_filled
penn ave,Zion Evangelical Lutheran Church,"237 37th Street, Pittsburgh",4.4,ChIJMVsySUvyNIgR0oB6cwZTZCM,40.4653802,-79.9635703,consolidated
liberty ave,Ing Mar Medical,"4719 Liberty Avenue, Pittsburgh",,ChIJM_RvEEfyNIgRyO8PY4eaBlo,40.4620115,-79.9491008,consolidated
butler st,Gingerly Press,"100 43rd Street #106, Pittsburgh",5.0,ChIJM_yzeftUxokRjZ5DLt-4npA,40.4729243,-79.96394649999999,consolidated
53rd St,Glenn Distributing Inc.,"315 North Avenue, Millvale",4.6,ChIJMwCRUnfzNIgRZ60sVpK9c2I,40.48217229999999,-79.9740195,broad_filled
liberty ave,Sabol Joseph MD,"4727 Friendship Avenue Suite 200, Pittsburgh",,ChIJN1Fql6_tNIgRqdckHmENCcE,40.4632342,-79.94816809999999,consolidated
34th St,Pink lot 3,"35th Street, Pittsburgh",,ChIJN2SReQDzNIgRKcic1DXswQA,40.46473,-79.96815730000002,broad_filled
42nd St,Pgh 360,"2134 Lowrie Street, Pittsburgh",5.0,ChIJN5mKqrvzNIgR8K2k6cC5C3k,40.47007800000001,-79.97819109999999,broad_filled
Butler St,Material Witness Showroom,"4724 Plummer Street, Pittsburgh",,ChIJN8CvWVHyNIgRmVj9Qs4T6tg,40.4752213,-79.9582331,broad_filled
liberty ave,Bloomfield Drug Store,"4727 Liberty Avenue, Pittsburgh",4.5,ChIJN8sfFEfyNIgRjylMDpeH9-U,40.46179,-79.9489428,consolidated
penn ave,Spectra Contract Flooring,"26 39th Street, Pittsburgh",,ChIJNR6I4bLzNIgRG05aCFrxj3U,40.47029,-79.96678899999999,consolidated
44th St,Lowrie St + Heckleman,United States,,ChIJNRgnwbvzNIgRrVJ-d0W8PnA,40.468788,-79.97908,broad_filled
liberty ave,State Insurance services,"4772 Liberty Avenue, Pittsburgh",4.5,ChIJNTdYTkfyNIgR8ddWotSbjMM,40.4607322,-79.9477091,bounding_only
penn ave,Pittsburgh Plant Co.,"158 41st Street, Pittsburgh",4.8,ChIJNU7yMsPzNIgROPph0Hf5hCQ,40.470409,-79.9626773,consolidated
butler st,Lawrenceville Three Rivers Heritage Trail,"Lawrenceville Trail, Pittsburgh",4.6,ChIJNUOwfZHzNIgRZ7VbbnVrX-g,40.47136130000001,-79.967191,consolidated
butler st,Butler St + 46th,United States,,ChIJNVbGKFLyNIgRRNS-7TfJy5s,40.472953,-79.95873499999999,consolidated
liberty ave,Empire on Liberty,"4045 Liberty Avenue, Pittsburgh",,ChIJNWnM6gBYNIgRogyIVsBjTHc,40.4633369,-79.9553656,bounding_only
Liberty Ave,Silver Eye Center For Photography,"4808 Penn Avenue, Pittsburgh",4.4,ChIJNYRZPULxNIgRANmifRTkykA,40.4652722,-79.9462648,broad_filled
Penn Ave,Common Plea Catering,"3700 Liberty Avenue, Pittsburgh",4.3,ChIJNaKEjMjzNIgREcTsnLlq4cI,40.4618872,-79.9617968,broad_filled
penn ave,"Laila Maher Younes, MD","3937 Butler Street, Pittsburgh",,ChIJNen9py3zNIgRuikS8oRmS4A,40.4689045,-79.9634657,consolidated
liberty ave,Mike Newell - State Farm Insurance Agent,"4772 Liberty Avenue, Pittsburgh",4.8,ChIJNezMSkbyNIgRJ6ok-AvSk-Q,40.460727,-79.94771290000001,bounding_only
penn ave,Butler St + 36th St,United States,,ChIJO-hovrTzNIgR9-NF7uZ45zU,40.46547899999999,-79.96531,bounding_only
liberty ave,Western Union,"4411 Howley Street, Pittsburgh",,ChIJO2ZzHUbyNIgRFYZXDDa6gCg,40.464643,-79.952764,consolidated
butler st,Leslie Park,"Butler St &, 46th Street, Pittsburgh",5.0,ChIJO49qSADzNIgRLYsaswZvD8k,40.472813,-79.95880319999999,consolidated
liberty ave,Wicked Skatewear,"4618 Liberty Avenue, Pittsburgh",4.8,ChIJO4ZMcr3zNIgRxfDmnMCFOq8,40.4620653,-79.9503508,bounding_only
penn ave,Arsenal Bowl,"212 44th Street, Pittsburgh",4.1,ChIJO8AsClLyNIgRPAgbZDmdado,40.471189,-79.9595354,consolidated
liberty ave,Basketball Court,Pittsburgh,,ChIJO8kmaUjyNIgRp9N3jjZSdO0,40.4622423,-79.95393779999999,consolidated
liberty ave,Radio Skateshop,"4116 Main Street, Pittsburgh",4.8,ChIJOQDRuefzNIgRhUkR_Hu5E1g,40.4651109,-79.9547319,bounding_only
liberty ave,PCNA,"4115 Liberty Avenue, Pittsburgh",,ChIJOSjAjUjyNIgREMdmgudUBP8,40.4635449,-79.9539729,bounding_only
liberty ave,Builtinbloomfield,"4042 Liberty Avenue, Pittsburgh",,ChIJOTcjq0nyNIgRHYSbPSzO_N8,40.4629138,-79.9556971,bounding_only
penn ave,Tom Savini Mural,"166 Almond Way, Pittsburgh",,ChIJOTpYeYvzNIgR9t1ahALvjpY,40.4697972,-79.9629253,consolidated
liberty ave,Nico's Recovery Room,"178 Pearl Street, Pittsburgh",4.3,ChIJOVBi60byNIgR1hXCUnFAEzo,40.4636488,-79.9489514,consolidated
penn ave,"Marybrooke Umhau Burval, MD","3937 Butler Street, Pittsburgh",,ChIJO_73OBbzNIgRZ3OnhjFHx3Y,40.4689045,-79.9634657,consolidated
Liberty Ave,Assemble,"4824 Penn Avenue, Pittsburgh",5.0,ChIJOelYBkLyNIgRHlIbIw_axws,40.4652471,-79.94599029999999,broad_filled
liberty ave,Bodega Film Lab,"4120 Main Street, Pittsburgh",5.0,ChIJOxSdjZDzNIgRQYAWMS6xF7A,40.46504789999999,-79.9546044,bounding_only
34th St,FleetPride Service Center,"112 35th Street, Pittsburgh",4.7,ChIJOz84NrTzNIgRcvp0PgweyGA,40.4645868,-79.9685259,broad_filled
Plummer St,PNC ATM,"401 Grant Avenue, Millvale",5.0,ChIJP03cjRbzNIgR5gEudrOMxvI,40.4798567,-79.9732465,broad_filled
liberty ave,Lavish Hair Studio,"4602 Penn Avenue, Pittsburgh",4.8,ChIJP0NbMETyNIgRYtZr7d3_ncY,40.46569,-79.94942999999999,consolidated
butler st,Cardtronics,"Arsenal Lanes, 212 44th Street, Pittsburgh",,ChIJP2MyClLyNIgRyCOEYEJBgjk,40.471189,-79.9595354,consolidated
42nd St,St. Nicholas Church,"24 Maryland Avenue, Pittsburgh",4.9,ChIJP5flLxvzNIgRavjNmpHkIUg,40.4770936,-79.96970999999999,broad_filled
penn ave,The Babe Cave,"3703 Butler Street, Pittsburgh",4.6,ChIJP806w8bzNIgRpONvLVJT7vY,40.46646150000001,-79.96485779999999,consolidated
penn ave,Steward Goode,"3700 Butler Street Suite 320, Pittsburgh",,ChIJP8pGQNPzNIgRp9cYOD8cad8,40.4662644,-79.9644211,bounding_only
liberty ave,Trace Brewing,"4312 Main Street, Pittsburgh",4.5,ChIJP8urYiDzNIgREgF-SxSwAnk,40.464085,-79.953357,bounding_only
penn ave,Brooklyn Bagel at Arsenal,"3915 Butler Street, Pittsburgh",4.4,ChIJP9e7G-jzNIgRkZGSNYvfzGU,40.467886,-79.96362959999999,consolidated
39th st,Millvale Riverfront Park,"70 River Front Drive, Pittsburgh",4.5,ChIJPR3OP67zNIgR-NjpvQp_HaA,40.4728491,-79.9712009,consolidated
penn ave,Nine O'Clock Wines,"4112 Butler Street, Pittsburgh",5.0,ChIJPR5HI7_zNIgRrC6mn6BBLnw,40.46986939999999,-79.96070089999999,consolidated
34th St,Mark's Truck & Auto Care,"3400 Smallman Street, Pittsburgh",5.0,ChIJPZDvosnzNIgRnFRo1wwPgLQ,40.46320029999999,-79.9682034,broad_filled
penn ave,Matthew Thomas Advisors,"3706 Butler Street, Pittsburgh",,ChIJP_1FKJPxNIgRLoWIZUa5ztA,40.4663709,-79.9643997,bounding_only
liberty ave,LibertyX Bitcoin ATM,"4776 Liberty Avenue, Pittsburgh",,ChIJPaTG9s3zNIgRUUXVq4kpeLw,40.4606299,-79.9476277,bounding_only
penn ave,Millie's Homemade Truck - Tiny Fleet,"3803 Butler Street, Pittsburgh",5.0,ChIJPeolNfjzNIgRHWwtAqrrYnA,40.467112,-79.96436159999999,consolidated
penn ave,Lumi Beauty Boutique,"3605 Butler Street, Pittsburgh",4.5,ChIJPf4EY7PzNIgR62qmPTzX3x0,40.4656268,-79.9653155,bounding_only
39th St,Millvale Marina,"101 Bridge Street, Pittsburgh",4.5,ChIJQ07VPKzzNIgRBPv1eXKWsQo,40.47595759999999,-79.9683909,broad_filled
butler st,Jersey Chrome Plating Co,"144 46th Street, Pittsburgh",4.3,ChIJQ4iErlPyNIgRb_EQweBvxvA,40.4739961,-79.9608299,bounding_only
Fisk St,MT Troy Rd + Kinkura,United States,,ChIJQ4poR5_zNIgRS9D4PMjH9G4,40.479397,-79.987611,broad_filled
liberty ave,American Discount Uniform,"4782 Liberty Avenue, Pittsburgh",4.6,ChIJQ6GHTUfyNIgRbsaNtJpYes8,40.4606286,-79.9473838,bounding_only
liberty ave,"Todd Pungratz, MSW, LCSW, CAADC","4111 Penn Avenue, Pittsburgh",,ChIJQ6eHW9_zNIgRc_J9S0Ld2Jw,40.4658925,-79.9548051,bounding_only
McCandless Ave,Tasty Taquitos,"301 North Avenue, Pittsburgh",5.0,ChIJQQ9urQTzNIgR7VgT3deDMQI,40.4818167,-79.97431859999999,broad_filled
liberty ave,Freehand Craft Studio,"4741 Liberty Avenue, Pittsburgh",5.0,ChIJQTW_PUfyNIgReWckbWGfkJc,40.4616204,-79.94855280000002,consolidated
penn ave,Butler St at 38th St,United States,,ChIJQViqU7PzNIgRv7nZPUDgRrc,40.4668077,-79.9642786,consolidated
butler st,Eclipse Wholesale Inc,"26 39th Street, Pittsburgh",4.0,ChIJQVwDTbNiNIgRIO-0u0mUVkI,40.4709266,-79.9665266,consolidated
56th St,Rusty Hook Auto Salvage in Pittsburgh,"3015 Mount Troy Road, Pittsburgh",4.9,ChIJQf77OkLzNIgRz3--q9K9Wh0,40.4783377,-79.9868127,broad_filled
liberty ave,Big Shot Bob's House of Wings,"4766 Liberty Avenue, Pittsburgh",3.5,ChIJQft3kaTzNIgRetJTJOLl88g,40.4607851,-79.9479285,bounding_only
44th St,True Merchant,"230 Stanton Avenue, Pittsburgh",4.9,ChIJQwRMOanzNIgRMT3JgpWr_ok,40.47797919999999,-79.9712816,broad_filled
44th St,Trace Services,"230 Stanton Avenue, Pittsburgh",2.6,ChIJQwRMOanzNIgRvtYEfZNIiMY,40.47797919999999,-79.9712816,broad_filled
liberty ave,Bloomers Laundromat,"4651 Gangwish Street, Pittsburgh",3.2,ChIJQxDVE0byNIgR_niGevl7uTE,40.4645551,-79.9517985,bounding_only
Butler St,Tower Drafting Services,"4739 Butler Street, Pittsburgh",,ChIJR1ncWlHyNIgRx3RefEY5BG0,40.4751791,-79.9579503,broad_filled
liberty ave,Jeff's Notary Service,"4035 Penn Avenue, Pittsburgh",4.2,ChIJR4DKM0nyNIgR4KLOtOHq5sU,40.46552200000001,-79.9565618,bounding_only
penn ave,STRIDE Fitness Lawrenceville,"3901 Butler Street, Pittsburgh",5.0,ChIJR6fs-T7zNIgRdNKAQLeNIgQ,40.4677344,-79.963743,consolidated
liberty ave,Kanakamedala Satish B B MD,"4506 Penn Avenue, Pittsburgh",4.0,ChIJRQWq6W7uNIgRFfE4SVijsTk,40.4660366,-79.9520533,bounding_only
Penn Ave,"Four Pillars Paint, LLC","3500 Penn Avenue, Pittsburgh",5.0,ChIJRT-NaweTDiARHaAUZU4oeKk,40.4637925,-79.9650157,broad_filled
51st st,The Gardens of Millvale,"22 Butler Street, Millvale",4.7,ChIJRVdq9KjzNIgRz4pLADDFPMk,40.4790893,-79.9732111,consolidated
liberty ave,Beroes Law Center,"4054 Penn Avenue, Pittsburgh",4.4,ChIJRViYKUnyNIgRvdTOxIPZykY,40.46538899999999,-79.95580749999999,bounding_only
penn ave,Whitey's Mobile Wash,"135 Almond Way, Pittsburgh",4.8,ChIJRX8FBPfyNIgRQQfggMyUVXU,40.4708755,-79.96409489999999,consolidated
liberty ave,Amazing Massage,"4521 Liberty Avenue, Pittsburgh",5.0,ChIJRas3-BTzNIgRPK9H4m8LWv8,40.4629369,-79.9509798,bounding_only
liberty ave,Marino's Auto Repair,"4610 Juniper Street, Pittsburgh",4.0,ChIJRbGV9DfyNIgRMLRx3jW9DZs,40.4592334,-79.9531763,consolidated
penn ave,Chocolatier Fortvna,"4112 Butler Street, Pittsburgh",5.0,ChIJRfi_-NjzNIgRiFXimgbCmkw,40.4698416,-79.9606687,consolidated
penn ave,Coffee at Brick Shop,"177 40th Street, Pittsburgh",3.0,ChIJRfmwWXvzNIgRLV4SEczR2PU,40.4697099,-79.9627665,consolidated
penn ave,Butler St + 41st,United States,,ChIJRzzuCU3yNIgRvRHSwgmGUIo,40.46958600000001,-79.96124999999999,consolidated
penn ave,Penn Ave at 40th St,United States,,ChIJS0NpWknyNIgRySaiw7YWxHg,40.4651715,-79.957978,bounding_only
34th St,Heart of Glass,"3613 Butler Street, Pittsburgh",4.9,ChIJS2B_RmvzNIgROYYZ_7D8OSU,40.4658377,-79.9652739,broad_filled
liberty ave,"Saint Ravioli, LLC","4615 Liberty Avenue, Pittsburgh",5.0,ChIJS44FwHLzNIgRBuXKiLvltE4,40.4625455,-79.9502734,bounding_only
39th st,Washington Crossing Bridge,Millvale,5.0,ChIJS6VA6a3zNIgRx6dKHnrostE,40.4728222,-79.96856509999999,consolidated
53rd St,Zurcher Home Improvements,"317 William Street, Pittsburgh",5.0,ChIJS9c9XBHzNIgRAX5gx4KWZ_Q,40.4828567,-79.9752041,broad_filled
penn ave,PNC Bank,"4101 Butler Street, Pittsburgh",3.5,ChIJSRISCk3yNIgRd14Ba2yucxA,40.46979,-79.96146,consolidated
butler st,ATM,"146 44th Street, Pittsburgh",,ChIJSRISCk3yNIgRupmzeX_KT7Q,40.4725156,-79.9616872,consolidated
liberty ave,International Fashion House Braiding & Boutique,"4709 Liberty Avenue, Pittsburgh",,ChIJSRT_BEfyNIgRBT7cTfxAwX0,40.4620819,-79.94947359999999,consolidated
34th st,Mattress Firm Warehouse,"55 38th Street, Pittsburgh",4.1,ChIJSTO7ALPzNIgR1TY91CZmg6Q,40.46852370000001,-79.96824289999999,consolidated
penn ave,Butler St + 36th St,United States,,ChIJSW15v7TzNIgRV6KMwdDmgEk,40.465433,-79.965183,bounding_only
liberty ave,Bloomfield Community Market,"4401 Liberty Avenue, Pittsburgh",3.8,ChIJSW9ZdrnzNIgRj9BwbOPANKs,40.46411,-79.9524806,bounding_only
butler st,World War I Memorial Park,"201 46th Street, Pittsburgh",4.7,ChIJSWbaJ1LyNIgRgmnckUWc6ng,40.47285389999999,-79.95851480000002,consolidated
penn ave,39th St + Butler,United States,,ChIJSYx0t0zyNIgRMA-lpU4aPUY,40.467498,-79.96359199999999,bounding_only
liberty ave,Pad Thai Noodle,"4770 Liberty Avenue, Pittsburgh",4.2,ChIJSbERT0fyNIgRGxDyCmC7sAY,40.46076600000001,-79.9477982,bounding_only
liberty ave,Thai Cuisine,"4627 Liberty Avenue, Pittsburgh",4.6,ChIJSegbAUfyNIgRxWUkXGV0_sM,40.46234,-79.9498926,consolidated
butler st,BEER & CHEERS,"4327 Butler Street, Pittsburgh",3.8,ChIJSf7urOvzNIgRpurzk_CR1ls,40.4715084,-79.9600646,bounding_only
Liberty Ave,U-Haul Moving & Storage of Oakland,"3700 Bigelow Boulevard, Pittsburgh",3.8,ChIJSwrDnU3zNIgRRGzgiDmQI4U,40.4578682,-79.9563884,broad_filled
51st St,Shear Timing,"500 Grant Avenue, Pittsburgh",4.9,ChIJSzo-aKjzNIgRpgPSayFMd7M,40.4804912,-79.9739941,broad_filled
penn ave,Butler St + 37th,United States,,ChIJT1xkr7TzNIgRVK2T2povJbE,40.466091,-79.964775,bounding_only
penn ave,Bergen Street Piano Lessons,"3832 Mintwood Street, Pittsburgh",5.0,ChIJT2WmkIP3NIgRrTgpIJXnimQ,40.46372119999999,-79.95995769999999,bounding_only
penn ave,Shiloh Center,"3832 Mintwood Street, Pittsburgh",4.4,ChIJT4ahtUvyNIgRwrky4FojGPs,40.46370040000001,-79.9599334,bounding_only
penn ave,Belvedere’s Ultra-Dive,"4016 Butler Street, Pittsburgh",3.8,ChIJTS0VAU3yNIgRA8pOtAG_B6g,40.4689441,-79.9615335,consolidated
48th St,"Double L, INC","307 Grant Avenue, Millvale",4.5,ChIJTSceAqnzNIgRKrH4xw6lpj8,40.4793975,-79.97236149999999,broad_filled
penn ave,"Robleto Kuruce, PLLC","3706 Butler Street, Pittsburgh",5.0,ChIJTTIhslbxNIgRNT5HiQJTdMw,40.4663709,-79.9643997,consolidated
liberty ave,The Hole Tavern,"4501 Torley Street, Pittsburgh",4.7,ChIJTUAT5IDzNIgRiYV3wAV1-Wc,40.4648698,-79.9505188,bounding_only
liberty ave,M. O’Herron Company,"4002 Lorigan Street, Pittsburgh",3.7,ChIJTVpDzknyNIgRDS9U29IvEJ0,40.46130650000001,-79.9561643,consolidated
liberty ave,Hogan Studios,"4523 Liberty Avenue, Pittsburgh",,ChIJTW-tTUbyNIgRRlt27qeDoWw,40.46292049999999,-79.950915,consolidated
46th St,Medicap Pharmacy,"225 Grant Avenue, Millvale",4.7,ChIJTWazBKnzNIgRio_BdlHNrH8,40.479057,-79.9720861,broad_filled
penn ave,Noire Distillery,"3908 Penn Avenue, Pittsburgh",5.0,ChIJTX0yv6rzNIgRet4O5PdFI0A,40.46478,-79.95952799999999,consolidated
liberty ave,Ficarri Builders,"4518 Liberty Avenue, Pittsburgh",,ChIJTYsvbaLzNIgR2GN7eMNGwu4,40.46260439999999,-79.95134809999999,consolidated
liberty ave,Pittsburgh tobacco and vape,"4776 Liberty Avenue, Pittsburgh",5.0,ChIJT_5T8SrzNIgRQQX0ykyJXSE,40.4606299,-79.9476277,bounding_only
liberty ave,Serpent Moon Tattoo Co.,"4516 Liberty Avenue, Pittsburgh",4.9,ChIJTappsurzNIgRIPhBHxPSSQY,40.4626673,-79.9513918,consolidated
liberty ave,Liberty Ave at Pearl St,United States,,ChIJTd-0B0fyNIgRnPV7TO8Spts,40.462094,-79.949877,bounding_only
butler st,Merritt Chase,"188 43rd Street, Pittsburgh",,ChIJTdMzI9nzNIgR10msu1Cz9RE,40.4707355,-79.9610699,bounding_only
42nd St,Propane Grills & Campers,United States,,ChIJTdPG5qvzNIgRx3k3ABPW9BA,40.4776415,-79.9694391,broad_filled
penn ave,Over Eden,"177 40th Street, Pittsburgh",4.0,ChIJTdlGrlzzNIgRIQf1pxrBMXc,40.469456,-79.9629301,consolidated
liberty ave,brothmonger,"4770 Liberty Avenue, Pittsburgh",5.0,ChIJTfjP8QzzNIgRIAHf6XCyQOQ,40.4607564,-79.94779439999999,bounding_only
liberty ave,Nail Studio 1,"4513 Liberty Avenue, Pittsburgh",4.5,ChIJTzcxSkbyNIgRXjM9Nn4UBhQ,40.4630309,-79.95125879999999,bounding_only
penn ave,USA Dust Guard,"24 39th Street, Pittsburgh",5.0,ChIJU0e447LzNIgRBdGCU-EshSk,40.47038420000001,-79.96670879999999,consolidated
34th St,Cardinal Health,"70 33rd Street, Pittsburgh",5.0,ChIJU1GzyrfzNIgRumpoMGEdtXA,40.4627538,-79.97206059999999,broad_filled
liberty ave,Mariani Appraisal Services,"4729 Liberty Avenue, Pittsburgh",,ChIJU1c6EUfyNIgRadEXyqUkLzs,40.461721,-79.9486953,consolidated
liberty ave,Pleasure Bar,"4729 Liberty Avenue, Pittsburgh",4.2,ChIJU1c6EUfyNIgRg8gKJwQNl4c,40.4617028,-79.9486917,consolidated
liberty ave,Pittsburgh Ceiling Tile Co,"4117 Liberty Avenue # 2, Pittsburgh",,ChIJU2kpWEjyNIgRHRNtshvbUYk,40.46367969999999,-79.95377049999999,bounding_only
liberty ave,"Robert C. Hawkins, Board","4117 Liberty Avenue, Pittsburgh",,ChIJU2kpWEjyNIgRKsnm7fTwKoA,40.4636882,-79.9538067,bounding_only
liberty ave,"Robin J. Sherwood, RN","4117 Liberty Avenue, Pittsburgh",,ChIJU2kpWEjyNIgRW4pVBuWcMjI,40.4636882,-79.9538067,bounding_only
liberty ave,"Dr. Eugene S. Ortiz, MD","4117 Liberty Avenue, Pittsburgh",,ChIJU2kpWEjyNIgRpksVM0UzQsE,40.4636882,-79.9538067,consolidated
liberty ave,Cancer Caring Center,"4117 Liberty Avenue, Pittsburgh",,ChIJU2kpWEjyNIgRx8RtWa9Rerg,40.4636573,-79.95384240000001,bounding_only
liberty ave,Nathaniel Vernon I MD,"4117 Liberty Avenue, Pittsburgh",,ChIJU2kpWEjyNIgRxaxqcKqfAF0,40.4637138,-79.9538054,bounding_only
Fisk St,MT Troy Rd + #2840,United States,,ChIJU6_3kpjzNIgRe348rCjIgeI,40.476907,-79.98756499999999,broad_filled
liberty ave,Dr Barad Illuminated SkinCare,"4424 Penn Avenue Accessible Seating, Pittsburgh",5.0,ChIJU7-g-UXyNIgR8jamBEFkXn0,40.4658719,-79.9526006,bounding_only
penn ave,POGOH Bike Share Station,"199-191 36th Street, Pittsburgh",,ChIJU7a9JADzNIgR76GXNJj5Qug,40.4654394,-79.96551790000001,bounding_only
penn ave,PGH Urban Garden Consultant,"400 Main Street, Pittsburgh",,ChIJURlImGHzNIgRRIbFbNV2zgo,40.4657486,-79.95518260000001,bounding_only
liberty ave,"Weinbaum, David L., MD","4778 Liberty Avenue, Pittsburgh",,ChIJUU0xTEfyNIgRAqPxzDJHeQg,40.4606096,-79.947555,bounding_only
liberty ave,Subway,"4778 Liberty Avenue, Pittsburgh",3.8,ChIJUU0xTEfyNIgRm45QJ4PgP2o,40.4606046,-79.9475539,bounding_only
liberty ave,Infectious Disease Associates,"4778 Liberty Avenue, Pittsburgh",,ChIJUU0xTEfyNIgRvK3tkg9um7o,40.4605989,-79.9475702,bounding_only
51st st,"American National Skyline, Inc. of Pittsburgh","14 Sedgwick Street, Pittsburgh",,ChIJUUQaqNrzNIgR-wSMUdjF9CQ,40.4796024,-79.9743143,consolidated
liberty ave,Main St + Howley FS,United States,,ChIJUVXioUjyNIgRCfPkqUz5dvA,40.46420699999999,-79.953178,bounding_only
butler st,MSTR,"4504 Butler Street, Pittsburgh",4.7,ChIJUWqRGFLyNIgR_O-Ip_85cuc,40.4722254,-79.95893230000001,consolidated
46th St,Wild At Heart Body Arts,"305 Grant Avenue #2611, Pittsburgh",4.9,ChIJUXB8AqnzNIgRcOP8GKd5vvQ,40.47936079999999,-79.97230449999999,broad_filled
Stanton Ave,"W Group Holdings, LLC","413 North Avenue, Pittsburgh",3.5,ChIJUZg76VR9NIgRInHUwFFLo4k,40.482651,-79.973738,broad_filled
Liberty Ave,Family Foot Center,"Gold Way, Pittsburgh",,ChIJU_jHBzfyNIgRN3WoeLEUloY,40.45794089999999,-79.9550345,broad_filled
penn ave,Penn Ave + Main,United States,,ChIJU_whLU_yNIgRR4e0cnshO74,40.465725,-79.95505399999999,bounding_only
46th St,Hometown Tattoo,"223 Grant Avenue, Millvale",4.9,ChIJUaMInGrzNIgRhdWpVM2g-pE,40.479004,-79.97200939999999,broad_filled
penn ave,Women & Girls Foundation-Swp,"3700 Butler Street Studio C, Pittsburgh",4.0,ChIJUeVIzVnxNIgRxXd2J3Upfkc,40.4662644,-79.9644211,bounding_only
penn ave,Steel City Speed & Custom,"100 40th Street, Pittsburgh",4.6,ChIJUeg7u7LzNIgRhckGWZEP3Qw,40.4708268,-79.9647737,consolidated
34th St,33rd Street Railroad Bridge,Pittsburgh,,ChIJUzDEBrfzNIgReLtXUr0Xvz0,40.4648553,-79.9728308,broad_filled
penn ave,Allison McGeary Florist,"3625 Butler Street, Pittsburgh",4.7,ChIJV1v5o7TzNIgRQhWKjo3YUbo,40.46615010000001,-79.9650716,consolidated
48th st,"Leone Electrical Contractors, LLC","1 Sheridan Street, Millvale",3.5,ChIJV3uvGAXzNIgRKiPBE0-oJxg,40.47745049999999,-79.97203119999999,consolidated
butler st,The Parlor Dim Sum,"4401 Butler Street, Pittsburgh",4.4,ChIJV4HpDlLyNIgRnw3FBi-owp4,40.4716799,-79.9598796,bounding_only
Butler St,Barb's Corner Kitchen,"4711 Butler Street, Pittsburgh",4.3,ChIJV79ZZlHyNIgRA3nFHpLybEU,40.47449169999999,-79.957917,broad_filled
liberty ave,Ella St + Liberty,United States,5.0,ChIJV8rNMEbyNIgRjgkwngkaL40,40.46331439999999,-79.951753,bounding_only
Butler St,Teamsters Local 249,"4701 Butler Street, Pittsburgh",5.0,ChIJVQ2CZFHyNIgRICjzgUIhCdg,40.4742738,-79.9580173,broad_filled
37th St,Indiana County Conservation District,"400 Waterfront Drive, Pittsburgh",,ChIJVRMt3LnzNIgR9rzKEsv9FLg,40.4659736,-79.9756268,broad_filled
penn ave,Athena Bitcoin ATM,"4010 Penn Avenue, Pittsburgh",,ChIJVTZZcxDzNIgRDuCESAqo1pE,40.4649901,-79.9574344,bounding_only
butler st,Greater Pittsburgh Medical Associates-UPMC,"193 43rd Street, Pittsburgh",,ChIJVUo-SAbzNIgRWTGygtvKqMk,40.4708505,-79.96046179999999,bounding_only
penn ave,Mi Empanada,"4034 Butler Street, Pittsburgh",4.5,ChIJVV4HnqLxNIgRxbPYfPin_Wo,40.4693291,-79.9612259,consolidated
penn ave,Keiichiro Narumoto,"3937 Butler Street, Pittsburgh",,ChIJVVUlKE3yNIgRE6imzMOYdSs,40.4689045,-79.9634657,consolidated
penn ave,Lisa Schlar,"3937 Butler Street, Pittsburgh",,ChIJVVUlKE3yNIgRKzbWFRIBb7U,40.4689045,-79.9634657,consolidated
penn ave,"Donald B. Middleton, MD","3937 Butler Street, Pittsburgh",,ChIJVVUlKE3yNIgRMJsqmIcw-FI,40.4689045,-79.9634657,consolidated
penn ave,Andrew Leuenberger,"3937 Butler Street, Pittsburgh",,ChIJVVUlKE3yNIgRObKea-Citi4,40.4689045,-79.9634657,consolidated
penn ave,Dr. Elizabeth Wettick,"3937 Butler Street, Pittsburgh",,ChIJVVUlKE3yNIgRdS1HwZtWuno,40.4689045,-79.9634657,consolidated
penn ave,Matthew Harbaugh,"3937 Butler Street, Pittsburgh",,ChIJVVUlKE3yNIgRiNbfHLKsHlY,40.4689045,-79.9634657,consolidated
penn ave,"Stella Leonora Winters, MD","3937 Butler Street, Pittsburgh",,ChIJVVUlKE3yNIgRnFWFGMdO5V8,40.4689045,-79.9634657,consolidated
penn ave,Patricia Mcguire,"3937 Butler Street, Pittsburgh",,ChIJVVUlKE3yNIgRooccTJxFkxg,40.4689045,-79.9634657,consolidated
penn ave,"Yufei Ge, MD","3937 Butler Street, Pittsburgh",,ChIJVVUlKE3yNIgRyggHly7u7JA,40.4689045,-79.9634657,consolidated
penn ave,Connor Mckittrick,"3937 Butler Street, Pittsburgh",,ChIJVVUlKE3yNIgRz8JGTSUgU7A,40.4689045,-79.9634657,consolidated
butler st,Mark Gillece Plumbing & Heating,Pittsburgh,3.0,ChIJVVVVVVDyNIgRkPbwOaUdNX4,40.47371630000001,-79.96123659999999,bounding_only
Plummer St,Creative Citizen studios,"312 Grant Avenue, Pittsburgh",,ChIJVVW5HQryNIgReutLJWz0sHQ,40.47972609999999,-79.97263099999999,broad_filled
liberty ave,Main St + Howley,United States,,ChIJVZjGokjyNIgRz19EaaAHwF0,40.46434000000001,-79.953484,bounding_only
penn ave,Mezcal Mexican Cantina,"4123 Butler Street, Pittsburgh",4.8,ChIJVbQic9zzNIgRmEsQQXRvNm0,40.47010760000001,-79.96096770000001,consolidated
McCandless Ave,ATM,"313 North Avenue, Pittsburgh",,ChIJVbV6V6jzNIgRjD15Ngc1KTs,40.4821316,-79.97416009999999,broad_filled
penn ave,Ron Donoughe,"208 Main Street, Pittsburgh",5.0,ChIJVdhNu03yNIgR1lPcrYmdXbQ,40.4695931,-79.9607654,consolidated
liberty ave,Liberty Ave + Pearl,United States,,ChIJVejoB0fyNIgRzocYuLEIe1c,40.46210900000001,-79.949989,bounding_only
liberty ave,Paf Enterprise,"4516 Liberty Avenue, Pittsburgh",,ChIJVekotUfyNIgRU3A-m0Wup4s,40.4627335,-79.9512869,bounding_only
penn ave,Elisco's Creative Café,"3707 Butler Street, Pittsburgh",4.7,ChIJVxBcV7PzNIgRNFWWJFJ3Rdg,40.4665326,-79.96465839999999,consolidated
liberty ave,Friendship Ave + Howley,United States,,ChIJVxsxdUbyNIgR4wMf-b_SdqU,40.46525,-79.951388,bounding_only
butler st,Fort Willow Developers,"115 41st Street, Pittsburgh",3.0,ChIJW0JBqlLyNIgRlR48xfww3kk,40.4714289,-79.96377269999999,consolidated
butler st,Carnegie Mellon Robotics Academy,"10 40th Street, Pittsburgh",,ChIJW45b26bzNIgR4ct9TYvJPmc,40.47317590000001,-79.96500619999999,consolidated
liberty ave,Pittsburgh Restaurant Workers Aid,United States,,ChIJW4COrkfyNIgRhKKYzcZ_OAI,40.4623197,-79.9505399,bounding_only
penn ave,Renew the 'I do' Foundation,"3706 Butler Street, Pittsburgh",4.9,ChIJW5Yj19bzNIgR1ozbqykUUjY,40.4663709,-79.9643997,bounding_only
penn ave,Citizens Bank,"Ronald McDonald House, 451 44th Street, Pittsburgh",3.0,ChIJW6Mn5lHyNIgR7Hj3Idv3c8g,40.46747000000001,-79.9539042,bounding_only
penn ave,"BCD Pink, Inc. Drop and Fluff!","Main Street, Pittsburgh",,ChIJWQe2tP_zNIgRSiMBmZgh5z4,40.46689879999999,-79.95673699999999,consolidated
penn ave,Butler St + 37th St,United States,,ChIJWRN6qLTzNIgRYg0fbH0wD_M,40.46633,-79.96471,consolidated
penn ave,PNC Mortgage,"4101 Butler Street, Pittsburgh",,ChIJWStWKqTzNIgR53itXb7aVeY,40.4697727,-79.96136729999999,bounding_only
liberty ave,Mary Hamilton,"4302 Main Street, Pittsburgh",,ChIJWThlymXzNIgRB_x8LHK8Ego,40.464479,-79.9537829,bounding_only
Liberty Ave,Moving Supplies at U-Haul,"3700 Bigelow Boulevard, Pittsburgh",,ChIJWVY4G9bzNIgRbSWZ0Lgx1YE,40.4576139,-79.95653080000001,broad_filled
34th st,Millvale,Millvale,,ChIJWWZBIhHzNIgRODpMSGtCnkM,40.480069,-79.9783862,consolidated
liberty ave,Citizens,"4314 Penn Avenue, Pittsburgh",3.4,ChIJWZaLA0fyNIgRQ9a85BZ0gGw,40.4656989,-79.95371279999999,bounding_only
liberty ave,ACE Cash Express,"4528 Liberty Avenue, Pittsburgh",4.9,ChIJW_YAtEfyNIgR3diGDH-s0s0,40.4625411,-79.9510538,consolidated
49th St,Shedquarters Self Pet Wash & Pet Supplies,"419 Grant Avenue, Pittsburgh",4.6,ChIJWwigGyvzNIgRAvMD9SjnEhg,40.4800704,-79.97382859999999,broad_filled
Stanton Ave,Pageboy Salon & Boutique,"420 North Avenue, Pittsburgh",4.9,ChIJWysyvbTzNIgRy1SGsoPrL2w,40.4827187,-79.9731363,broad_filled
penn ave,St Fidelis Development,"220 37th Street, Pittsburgh",,ChIJWzZ0IbPzNIgRj5XXQMIeoG0,40.4687649,-79.96522019999999,consolidated
penn ave,The Port,"3620 Butler Street, Pittsburgh",,ChIJX34-qQ3zNIgR3_sHNJwRPmI,40.46564370000001,-79.96474289999999,bounding_only
liberty ave,Wilson's Pharmacy,"4101 Penn Avenue A, Pittsburgh",4.3,ChIJX7iHLE_yNIgRdUvOLq0Zikg,40.465856,-79.955212,bounding_only
Penn Ave,All Occasions Party Rental,"3600 Liberty Avenue, Pittsburgh",3.7,ChIJX7s0qUryNIgRBMSrVvV-F7o,40.4616342,-79.9637588,broad_filled
penn ave,Transitional Rehabilitation at Canterbury Place,"310 Fisk Street, Pittsburgh",5.0,ChIJXSZEU0nyNIgRmzG05_LdZp8,40.4662815,-79.9584636,consolidated
liberty ave,Regis Iovino Appraisal Company,"4729 Liberty Avenue, Pittsburgh",1.0,ChIJXSouFkfyNIgRWgmzaTv2kAg,40.4617151,-79.94869229999999,consolidated
butler st,Vergil Architects,"4311 Butler Street, Pittsburgh",5.0,ChIJXW-RBd_zNIgRGIo1N_gF0WY,40.4711005,-79.96042829999999,bounding_only
52nd St,J P Paracca Flooring and Design,"221 North Avenue, Pittsburgh",4.6,ChIJXYlVhanzNIgRvS7OIfEGB00,40.48151289999999,-79.9747216,broad_filled
liberty ave,Dr. Brendan Marr,"4727 Friendship Avenue, Pittsburgh",5.0,ChIJXaT9xEbyNIgRdIQ-SQrMt_c,40.4632569,-79.9481624,consolidated
penn ave,Ineffable Events,"3920 Penn Avenue, Pittsburgh",5.0,ChIJXasKajzzNIgRwCJMCyKiipw,40.4646779,-79.9592701,bounding_only
liberty ave,Liberty Tax,"4519 Liberty Avenue, Pittsburgh",3.8,ChIJXc6adlLyNIgRAMAezGNXF4w,40.46299450000001,-79.9510683,consolidated
penn ave,Central Lawrenceville Neighborway,"401 Willow Street, Pittsburgh",,ChIJXcsmjCHzNIgR80PZD1hMMxE,40.470866,-79.9648959,consolidated
penn ave,convive coffee roastery,"4032 Butler Street, Pittsburgh",4.7,ChIJXxJOonLzNIgRLoWk4qqp7D8,40.4692938,-79.9613086,consolidated
51st st,Krusty the Neighborhood Cat,"2 Sedgwick Street, Pittsburgh",4.6,ChIJY1G6S_rzNIgRfr4HqWbSH5E,40.4793104,-79.97457370000001,consolidated
