Street,Name,Address,Rating,Place ID,Latitude,Longitude
liberty ave,Pittsburgh,Pittsburgh,N/A,ChIJA4UGSG_xNIgRNBuiWqEV-Y0,40.44062479999999,-79.9958864
liberty ave,uBreakiFix - Phone and Computer Repair,"4718 Liberty Avenue, Pittsburgh",4.2,ChIJB_HjEUfyNIgRD5tY2m91LgE,40.4615752,-79.9494414
liberty ave,Tessaro's American Bar & Hardwood Grill,"4601 Liberty Avenue, Pittsburgh",4.5,ChIJ1a5WTUbyNIgRjZqErFhIgMQ,40.4627075,-79.9507294
liberty ave,Paul Lumber & Supply,"4072 Liberty Avenue, Pittsburgh",4.5,ChIJqfNfikjyNIgREcKkghPLwKk,40.4630587,-79.95441919999999
liberty ave,Thai Cuisine,"4627 Liberty Avenue, Pittsburgh",4.6,ChIJSegbAUfyNIgRxWUkXGV0_sM,40.46234,-79.9498926
liberty ave,Small Wonders at the UPMC,"425 North Craig Street, Pittsburgh",4.8,ChIJ9caDyjDyNIgRSvT7faueyOs,40.4553749,-79.954484
liberty ave,Lot 17,"1922, 4617 Liberty Avenue, Pittsburgh",4.5,ChIJ9RuVqkfyNIgRkMqRFmij0AE,40.4624552,-79.9502692
liberty ave,Thai Gourmet,"4505 Liberty Avenue, Pittsburgh",4.7,ChIJ157INUbyNIgRIdYcEKwlsxk,40.463207,-79.95149800000002
liberty ave,Exercise Warehouse,"4042 Liberty Avenue, Pittsburgh",4.8,ChIJJzsfq0nyNIgRdjj2SxMOsEA,40.4629608,-79.9557154
liberty ave,Marino's Auto Repair,"4610 Juniper Street, Pittsburgh",4,ChIJRbGV9DfyNIgRMLRx3jW9DZs,40.4592334,-79.9531763
liberty ave,United States Products Co,"518 Melwood Avenue, Pittsburgh",5,ChIJy8U3ajfyNIgRkfC5hxt74hw,40.4568284,-79.95382889999999
liberty ave,Hammer-Mann Designwerks,"431 Dargan Street, Pittsburgh",5,ChIJ9eOYxW3yNIgRucjj5X3Zf3s,40.4613826,-79.9540572
liberty ave,Training Revelations,"605 Melwood Avenue, Pittsburgh",5,ChIJrTLSyBDyNIgRAbSF0QtgMZE,40.4573768,-79.9546343
liberty ave,Machine Age,"3575 Bigelow Boulevard, Pittsburgh",N/A,ChIJ634tdzbyNIgRRSfWnyycbrQ,40.4590741,-79.9581091
liberty ave,Bloomfield Dek Hockey,"408 Ella Street, Pittsburgh",4.7,ChIJHV54e0jyNIgRZVJk_hlFGWU,40.46246699999999,-79.953516
liberty ave,Keystone Physical Therapy,"4724 Essex Way, Pittsburgh",N/A,ChIJ_9HTfjjyNIgREal8tyEQg-k,40.4599725,-79.9503782
liberty ave,Saccocione Concrete,"732 Edmond Street, Pittsburgh",5,ChIJg9OVUTjyNIgRkQiyfKhp29w,40.4580522,-79.9506297
liberty ave,Mega Cat Studios,"3559 Bigelow Boulevard, Pittsburgh",5,ChIJ_1aep5HtNIgRsQMij1Fkh9A,40.458878,-79.9586415
liberty ave,Progressive Office Cabling,"324 Taylor Street, Pittsburgh",3.7,ChIJg6PafchVNIgRcQRe5G6jmdM,40.46208199999999,-79.951639
liberty ave,Bloomfield,Pittsburgh,N/A,ChIJ0X4ZRUHyNIgRDG3KutmxB2g,40.4621606,-79.94445259999999
liberty ave,Cullen & Associates,"4012 Liberty Avenue, Pittsburgh",5,ChIJvWd72GryNIgRvksohKS3unE,40.4625828,-79.95659309999999
liberty ave,Budget Truck Rental,"4052b Liberty Avenue, Pittsburgh",2.3,ChIJYUogVEjyNIgRR9TuXAGf9So,40.46293709999999,-79.955347
liberty ave,Budget Car Rental,"4052 Liberty Avenue, Pittsburgh",2.6,ChIJr3IdVEjyNIgR_sFhJGl0Uz8,40.4629708,-79.9552726
liberty ave,Avis Car Rental,"4052 Liberty Avenue, Pittsburgh",3.3,ChIJr3IdVEjyNIgREixcw6C9rcs,40.4629708,-79.9552726
liberty ave,Caliente Pizza & Drafthouse - Bloomfield,"4624 Liberty Avenue, Pittsburgh",3.8,ChIJF27Hp0fyNIgRnZHhBa75CIw,40.46203579999999,-79.9501025
liberty ave,MoneyGram,"4528 Liberty Avenue, Pittsburgh",4,ChIJwVr3s0fyNIgRad0Fm-DODbM,40.46247460000001,-79.951078
liberty ave,Eisaman Contract Associates Inc,"4063 Liberty Avenue, Pittsburgh",N/A,ChIJd5Oy9kjyNIgRqm0VA1ldva8,40.4635059,-79.954769
liberty ave,Khan Adeel DDS,"4600 Liberty Avenue #1923, Pittsburgh",N/A,ChIJeQqBsUfyNIgRlsca-8rmrKs,40.4624191,-79.95089879999999
liberty ave,Golba & Associates - Architecture,"4055 Liberty Avenue #3, Pittsburgh",N/A,ChIJdb08-kjyNIgRoV9joqovTQc,40.4634452,-79.9550636
liberty ave,TMD Holdings,"461 Melwood Avenue, Oakland",3.7,ChIJH1KUUzfyNIgRNjiFPOCFkvU,40.4556146,-79.9532909
liberty ave,Prototype PGH,"460 Melwood Avenue #208, Pittsburgh",4.5,ChIJSxea_DnyNIgRpZIbqkzFF6M,40.4556808,-79.9526977
liberty ave,Bernie's Auto Repairs,"3601 Bethoven Street, Pittsburgh",4.6,ChIJqxxhdTbyNIgR4X15ZR2tp2E,40.45948509999999,-79.9584047
liberty ave,Dan Cercone Barber Shop,"4720 Liberty Avenue, Pittsburgh",4.7,ChIJz4fxEUfyNIgR8tvfxlBf9rg,40.46159,-79.949339
liberty ave,C-leveled,"4117 Liberty Avenue, Pittsburgh",4.9,ChIJo4LdkUjyNIgRCNODMrjYi0g,40.463557,-79.95384200000001
liberty ave,Maven Machines,"4117 Liberty Avenue, Pittsburgh",2.8,ChIJf7vHkUjyNIgRSvoE2ekQUqY,40.4636788,-79.95377049999999
liberty ave,Bright Horizons,"425 North Craig Street, Pittsburgh",5,ChIJD--xyzDyNIgRw3SkN1ayrTo,40.4552919,-79.9546092
liberty ave,ACE Cash Express,"4528 Liberty Avenue, Pittsburgh",4.9,ChIJW_YAtEfyNIgR3diGDH-s0s0,40.4625411,-79.9510538
liberty ave,Mandi Freger,"3519 Bigelow Boulevard, Pittsburgh",N/A,ChIJq6pWtTXyNIgRT6SM7NHK0Q8,40.4584789,-79.95984639999999
liberty ave,"Advanced Diagnostics, P.C.","3519 Bigelow Boulevard, Pittsburgh",5,ChIJD8e8yjXyNIgRRZDaQl8WK7U,40.4584789,-79.95984639999999
liberty ave,"Gregory J. Nicosia, PHD","3519 Bigelow Boulevard, Pittsburgh",5,ChIJD8e8yjXyNIgRtOSzVLjvznw,40.4584789,-79.95984639999999
liberty ave,PITTSBURGH YOGA BOUTIQUE,"626 Edmond Street, Pittsburgh",N/A,ChIJAQBPiTjyNIgRhVxcxTUJjS8,40.4592056,-79.9497308
liberty ave,POGOH - Taylor St & Liberty Ave,"4601 Liberty Avenue, Pittsburgh",N/A,ChIJsYlrTUbyNIgR9alEuJkybeI,40.4628368,-79.95083199999999
liberty ave,Signature Building Services Inc,"451 Melwood Avenue, Pittsburgh",3.3,ChIJ4waYVDfyNIgRNiZsy89TZr4,40.455279,-79.95322999999999
liberty ave,Hogan Studios,"4523 Liberty Avenue, Pittsburgh",N/A,ChIJTW-tTUbyNIgRRlt27qeDoWw,40.46292049999999,-79.950915
liberty ave,Stacy Jr J Matthew DDS,"4607 Liberty Avenue, Pittsburgh",5,ChIJZ08krUfyNIgR-EvNy-45Es0,40.462667,-79.950473
liberty ave,First National Bank,"4724 Liberty Avenue, Pittsburgh",3.8,ChIJ0WyPEkfyNIgR8w5NG4mGAWY,40.4614324,-79.9492944
liberty ave,Linea Verde Green Market,"4619 Liberty Avenue, Pittsburgh",4.9,ChIJh5-cqkfyNIgR0Oikxdv6q_g,40.4624386,-79.9501913
liberty ave,Empire on Liberty,"4045 Liberty Avenue, Pittsburgh",N/A,ChIJNWnM6gBYNIgRogyIVsBjTHc,40.4633369,-79.9553656
liberty ave,Liberty Beer,"4133 Liberty Avenue, Pittsburgh",4.7,ChIJlUF7nEjyNIgRgnsm08WgPr0,40.4638429,-79.9533426
liberty ave,Bloomfield Park,"408 Ella Street, Pittsburgh",4.4,ChIJ00zxaEjyNIgRAmIQw4o3bx4,40.46288860000001,-79.95391219999999
liberty ave,China House,"4506 Liberty Avenue, Pittsburgh",4.2,ChIJmTdGy0fyNIgRnBcu5zadtoQ,40.46283709999999,-79.95167719999999
liberty ave,"Dr. Eugene S. Ortiz, MD","4117 Liberty Avenue, Pittsburgh",N/A,ChIJU2kpWEjyNIgRpksVM0UzQsE,40.4636882,-79.9538067
liberty ave,Nova Dental Associates: Waskowitz Joshua DDS,"4600 Liberty Avenue #1923, Pittsburgh",2.7,ChIJdaWdsUfyNIgR-gZZGCzEVWQ,40.4624191,-79.95089879999999
liberty ave,Bloomfield Swimming,"408 Ella Street, Pittsburgh",4.4,ChIJn4JQ30fyNIgR9WaHWMAIVGk,40.4619524,-79.9533259
liberty ave,MetroMix Studios,"3567 Bigelow Boulevard, Pittsburgh",3,ChIJC5zi1zXyNIgR_kIEJxaNikA,40.4589478,-79.9584472
liberty ave,bp,"4006 Liberty Avenue, Pittsburgh",2.8,ChIJl3h2oknyNIgRCj8_7YNbIDQ,40.4626849,-79.9569544
liberty ave,ATM,"4617 Liberty Avenue, Pittsburgh",N/A,ChIJ9RuVqkfyNIgR7To62HqnQAg,40.4625621,-79.9501715
liberty ave,Iron Eden Inc,"4001 Lorigan Street, Pittsburgh",4.6,ChIJGYDk80jyNIgR3v2soh9Pt90,40.4615455,-79.955625
liberty ave,Woolslair Elementary School,"501 40th Street, Pittsburgh",3.3,ChIJxXPIdknyNIgRk1bL9ZS3DuU,40.4631909,-79.9571285
liberty ave,Independent Enterprises LLC,"4420 Lorigan Street, Pittsburgh",N/A,ChIJf3QuFwDzNIgRptcoYOdNv7U,40.4605937,-79.9549838
liberty ave,Subway,"4778 Liberty Avenue, Pittsburgh",3.8,ChIJUU0xTEfyNIgRm45QJ4PgP2o,40.4606046,-79.9475539
liberty ave,Wai Wai - Bloomfield,"4717 Liberty Avenue, Pittsburgh",3.9,ChIJ7-YJEEfyNIgRO0lw1eHhKwM,40.462008,-79.949185
liberty ave,Rite Aid,"4411 Howley Street, Pittsburgh",3.9,ChIJ2X-6IEbyNIgRScR3KfAELy4,40.464548,-79.95261099999999
liberty ave,Allure,"4730 Liberty Avenue, Pittsburgh",5,ChIJib9qFEfyNIgR95YgYP9L3Rk,40.4614559,-79.9489423
liberty ave,Walkowski Agency,"4757 Liberty Avenue, Pittsburgh",5,ChIJsX8IOUfyNIgRF-oXowA7aRo,40.4613894,-79.94814690000001
liberty ave,Clothes Minded,"4740 Liberty Avenue, Pittsburgh",4.3,ChIJ8TC8akfyNIgRPWW81WSS_ak,40.4612565,-79.9486541
liberty ave,Gryphon's Tea,"4709 Liberty Avenue, Pittsburgh",5,ChIJqXdRmU3yNIgRTtYlLipakCI,40.46205129999999,-79.9495056
liberty ave,International Fashion House Braiding & Boutique,"4709 Liberty Avenue, Pittsburgh",N/A,ChIJSRT_BEfyNIgRBT7cTfxAwX0,40.4620819,-79.94947359999999
liberty ave,WesBanco Bank,"4719 Liberty Avenue, Pittsburgh",4.2,ChIJl2lqGkfyNIgRbmMYnI5TsFM,40.4619671,-79.9491024
liberty ave,Ing Mar Medical,"4719 Liberty Avenue, Pittsburgh",N/A,ChIJM_RvEEfyNIgRyO8PY4eaBlo,40.4620115,-79.9491008
liberty ave,Bloomfield Drug Store,"4727 Liberty Avenue, Pittsburgh",4.5,ChIJN8sfFEfyNIgRjylMDpeH9-U,40.46179,-79.9489428
liberty ave,Freehand Craft Studio,"4741 Liberty Avenue, Pittsburgh",5,ChIJQTW_PUfyNIgReWckbWGfkJc,40.4616204,-79.94855280000002
liberty ave,White Whale Bookstore,"4754 Liberty Avenue, Pittsburgh",4.8,ChIJ8z0fR0fyNIgRujuROd2LhKo,40.461023,-79.9482606
liberty ave,Rite Aid Pharmacy,"4411 Howley Street, Pittsburgh",5,ChIJFSwiHUbyNIgRKcNIyZd8tVc,40.464623,-79.95270049999999
liberty ave,Western Union,"4411 Howley Street, Pittsburgh",N/A,ChIJO2ZzHUbyNIgRFYZXDDa6gCg,40.464643,-79.952764
liberty ave,Salon DeMarzano,"4764 Liberty Avenue, Pittsburgh",4.5,ChIJ9-KJo0fyNIgRVS_VLbjdOaA,40.460884,-79.947964
liberty ave,"Bloomfield Dental - Dana M. Monahan DDS, LLC","4760 Liberty Avenue, Pittsburgh",4.7,ChIJLerDRUfyNIgR2qGyInIk3nY,40.46092919999999,-79.9480298
liberty ave,Pleasure Bar,"4729 Liberty Avenue, Pittsburgh",4.2,ChIJU1c6EUfyNIgRg8gKJwQNl4c,40.4617028,-79.9486917
liberty ave,Bloomfield Lofts,"Edmond Street, Pittsburgh",N/A,ChIJ0R5bN0fyNIgRPwagLfkMFEE,40.4612999,-79.94781429999999
liberty ave,"Dr. Sigurdur R. Petursson, MD","4727 Friendship Avenue, Pittsburgh",N/A,ChIJsVQDskDyNIgRSpyXxKioRl8,40.4632342,-79.94816809999999
liberty ave,State Insurance services,"4772 Liberty Avenue, Pittsburgh",4.5,ChIJNTdYTkfyNIgR8ddWotSbjMM,40.4607322,-79.9477091
liberty ave,Infectious Disease Associates,"4778 Liberty Avenue, Pittsburgh",N/A,ChIJUU0xTEfyNIgRvK3tkg9um7o,40.4605989,-79.9475702
liberty ave,"Weinbaum, David L., MD","4778 Liberty Avenue, Pittsburgh",N/A,ChIJUU0xTEfyNIgRAqPxzDJHeQg,40.4606096,-79.947555
liberty ave,Sausalido,"4621 Liberty Avenue, Pittsburgh",4.7,ChIJifg4qkfyNIgR78eJjin8_cI,40.462443,-79.950098
liberty ave,West Penn Hospital,"4800 Friendship Avenue, Pittsburgh",3.5,ChIJjxMrxEDyNIgRDMtAujRtMDQ,40.4619097,-79.9463519
liberty ave,Omega Federal Credit Union (West Penn),"4800 Friendship Avenue, Pittsburgh",3,ChIJjxMrxEDyNIgR8uQ-v11OfHs,40.461454,-79.94636299999999
liberty ave,Western Pa Radiation Oncology: Onufrey Victor G MD,"4800 Friendship Avenue, Pittsburgh",N/A,ChIJjxMrxEDyNIgRSztSBXfayVc,40.4618992,-79.94661669999999
liberty ave,West Penn Burn Center,"4800 Friendship Avenue, Pittsburgh",5,ChIJx1VNlUDyNIgR9vOxPWLFJAM,40.4622278,-79.9459186
liberty ave,Kolls Jay K,"3520 Penn Avenue, Pittsburgh",N/A,ChIJB4nS8UXyNIgRw-NKRky1NbU,40.4660312,-79.9535037
liberty ave,"Dr. Robert C. Cicco, MD","4800 Friendship Avenue # W3, Pittsburgh",N/A,ChIJjxMrxEDyNIgRM2cJFEGnRzg,40.4614529,-79.94636369999999
liberty ave,Mahmood Burhanuddin MD,"4401 Penn Avenue, Pittsburgh",N/A,ChIJ6XMqTE_yNIgRgt-gKzA1TtM,40.4661227,-79.9533866
liberty ave,Saladino Richard A MD,"4401 Penn Avenue, Pittsburgh",N/A,ChIJ6XMqTE_yNIgRDIFJx2D5Dag,40.4661227,-79.9533866
liberty ave,AGH Radiation Oncology,"4800 Friendship Avenue Suite GR58, Pittsburgh",N/A,ChIJjxMrxEDyNIgRqsmjAd2nxp0,40.4621112,-79.94622729999999
liberty ave,Mccandlish Mitchel L MD,"4800 Friendship Avenue, Pittsburgh",N/A,ChIJjxMrxEDyNIgRQG6Tk4ByAlM,40.4614529,-79.94636369999999
liberty ave,Straka & Mc Quone Inc: Straka Matthew B MD,"4800 Friendship Avenue, Pittsburgh",1,ChIJsVQDskDyNIgRMijriF7ZnIw,40.4614529,-79.94636369999999
liberty ave,Bacher Ave M MD,"4800 Friendship Avenue, Pittsburgh",N/A,ChIJjxMrxEDyNIgRz_e0IiPF8XI,40.4614529,-79.94636369999999
liberty ave,"Dr. Giovanni G. Laneri, MD","4800 Friendship Avenue # 3W, Pittsburgh",N/A,ChIJjxMrxEDyNIgR6RuBOcNZn_s,40.4614529,-79.94636369999999
liberty ave,Adler Peter H MD,"4800 Friendship Avenue, Pittsburgh",N/A,ChIJjxMrxEDyNIgRcOjUGOCmx3I,40.4614529,-79.94636369999999
liberty ave,Zancosky Krysia L DO,"4800 Friendship Avenue, Pittsburgh",N/A,ChIJjxMrxEDyNIgRj7OyAOWa-7A,40.4614529,-79.94636369999999
liberty ave,Klapper Allan S MD,"4800 Friendship Avenue, Pittsburgh",5,ChIJjxMrxEDyNIgRAFuczZVsy3A,40.4614529,-79.94636369999999
liberty ave,School of Respiratory Care,"4800 Friendship Avenue, Pittsburgh",5,ChIJz-0n_UDyNIgR1_RU5a4jeIk,40.4614529,-79.94636369999999
liberty ave,Western Pennsylvania Hospital: Jetti Krishna P P MD,"4800 Friendship Avenue, Pittsburgh",4,ChIJjxMrxEDyNIgRS79hKAlWOiY,40.4614529,-79.94636369999999
liberty ave,"Dr. Bruce A. Macleod, MD","4800 Friendship Avenue, Pittsburgh",5,ChIJjxMrxEDyNIgRmXX3giXCfYY,40.4614529,-79.94636369999999
liberty ave,Hsu Gin-Ming MD- Western Pennsylvania Hospital,"4800 Friendship Avenue, Pittsburgh",N/A,ChIJjxMrxEDyNIgROImeDpzL2So,40.4614529,-79.94636369999999
liberty ave,Karlovits Ditte K K DO,"4800 Friendship Avenue, Pittsburgh",N/A,ChIJjxMrxEDyNIgRj482Mehf6Kc,40.4614529,-79.94636369999999
liberty ave,"Matthew J Hentges, DPM","4800 Friendship Avenue, Pittsburgh",N/A,ChIJjxMrxEDyNIgRzqb7YZrL3sY,40.4614529,-79.94636369999999
liberty ave,Nayak Shanteri U MD,"4800 Friendship Avenue, Pittsburgh",N/A,ChIJjxMrxEDyNIgR9oJ8stDLJcw,40.4614529,-79.94636369999999
liberty ave,Levine Nancy MD,"4800 Friendship Avenue # N221, Pittsburgh",N/A,ChIJjxMrxEDyNIgR80C6wgVjkko,40.4614529,-79.94636369999999
liberty ave,Hearing Center,"4401 Penn Avenue, Pittsburgh",N/A,ChIJ6XMqTE_yNIgRniJy3FvIq8k,40.46624379999999,-79.9532741
liberty ave,"Karl R Saltrick, DPM","North Tower, 4800 Friendship Avenue 1st Floor, Pittsburgh",5,ChIJjxMrxEDyNIgRoIU_hTuYIHw,40.4614529,-79.94636369999999
liberty ave,Western Pennsylvania Hospital: Coblentz Robert H MD,"4800 Friendship Avenue, Pittsburgh",N/A,ChIJjxMrxEDyNIgREP3eiN8hASs,40.4614534,-79.9463638
liberty ave,"Geoffrey Kurland, MD","4401 Penn Avenue, Pittsburgh",N/A,ChIJ6XMqTE_yNIgRTDQrWa2yGJw,40.4663377,-79.9530912
liberty ave,"Dr. Genevieve Hunkele, MD","4800 Friendship Avenue, Pittsburgh",4.6,ChIJjxMrxEDyNIgRuhJ3OpZttiQ,40.4612756,-79.9463674
liberty ave,Roth Kimberly R MD,"4401 Penn Avenue, Pittsburgh",N/A,ChIJG5CRGyryNIgR44bJrSutATw,40.4663377,-79.9530912
liberty ave,"Dr. Amy H. Kao, MD","4815 Liberty Avenue, Pittsburgh",N/A,ChIJ_1QDskDyNIgRVciXUw0ubXU,40.4606097,-79.946843
liberty ave,"Dr. Richard G. Feduska, MD","4800 Friendship Avenue, Pittsburgh",N/A,ChIJjxMrxEDyNIgRnK3IR19ZrWY,40.4614529,-79.94636369999999
liberty ave,Parda David S MD,"4800 Friendship Avenue, Pittsburgh",N/A,ChIJjxMrxEDyNIgRniyeDLIYQ3M,40.4614529,-79.94636369999999
liberty ave,Western Pennsylvania Hospital: Martin Thomas P MD,"4800 Friendship Avenue, Pittsburgh",N/A,ChIJjxMrxEDyNIgRdlIPQslFKZU,40.4614529,-79.94636369999999
liberty ave,"David M Epstein, MD","4800 Friendship Avenue, Pittsburgh",N/A,ChIJjxMrxEDyNIgR699X7u9gcxI,40.4614529,-79.94636369999999
liberty ave,"Dr. Paul L. Diana, MD","4800 Friendship Avenue, Pittsburgh",5,ChIJjxMrxEDyNIgRj4sRy1bvv38,40.4614529,-79.94636369999999
liberty ave,"Dr. Sanjeev Katyal, MD","4800 Friendship Avenue, Pittsburgh",N/A,ChIJjxMrxEDyNIgRTOoqzJoJscA,40.4614529,-79.94636369999999
liberty ave,"Dr. Mark O. Stypula, MD","4800 Friendship Avenue, Pittsburgh",N/A,ChIJjxMrxEDyNIgRgJG3UU2MOLQ,40.4614529,-79.94636369999999
liberty ave,"Dr. Jeffrey C. Wilson, MD","4800 Friendship Avenue, Pittsburgh",N/A,ChIJjxMrxEDyNIgRiMSKmhbc75Y,40.4614529,-79.94636369999999
liberty ave,Sahovic Entezam Asi MD,"4800 Friendship Avenue, Pittsburgh",N/A,ChIJjxMrxEDyNIgR4PWfjCGKHCg,40.4614529,-79.94636369999999
liberty ave,"Dr. Nilima T. Karamchandani, MD","4800 Friendship Avenue # 3W, Pittsburgh",N/A,ChIJjxMrxEDyNIgRIUr8HN8xr80,40.4614529,-79.94636369999999
liberty ave,Western Pennsylvania Hospital: Costa Frank J J MD,"4800 Friendship Avenue, Pittsburgh",N/A,ChIJjxMrxEDyNIgROPfqSncSckA,40.4614529,-79.94636369999999
liberty ave,"Dr. Luke S. Lin, MD","4800 Friendship Avenue, Pittsburgh",N/A,ChIJjxMrxEDyNIgR5NdjEZaA40M,40.4614529,-79.94636369999999
liberty ave,"Christopher A. Troianos, M.D.","4800 Friendship Avenue, Pittsburgh",N/A,ChIJjxMrxEDyNIgRqhiR1Q3V8jM,40.4614529,-79.94636369999999
liberty ave,Olszewski Douglas H,"4800 Friendship Avenue, Pittsburgh",N/A,ChIJjxMrxEDyNIgRC9o6-2vtdGg,40.4614529,-79.94636369999999
liberty ave,Hoyson Gregory M M MD,"4800 Friendship Avenue, Pittsburgh",N/A,ChIJjxMrxEDyNIgRJRXhCIW1aBw,40.4614529,-79.94636369999999
liberty ave,Western Pennsylvania Hospital: Levari Itamar MD,"4800 Friendship Avenue, Pittsburgh",N/A,ChIJjxMrxEDyNIgRe0T60xvKVo8,40.4614529,-79.94636369999999
liberty ave,"Dr. Rup K. Dua, MD","4800 Friendship Avenue, Pittsburgh",N/A,ChIJjxMrxEDyNIgRGEHOP1vPTBk,40.4614529,-79.94636369999999
liberty ave,"Dr. Gregory Suero, MD","4800 Friendship Avenue, Pittsburgh",N/A,ChIJjxMrxEDyNIgRwhHa2LqgK7M,40.4614529,-79.94636369999999
liberty ave,Western Pennsylvania Hospital: Garrett Allen R MD,"4800 Friendship Avenue, Pittsburgh",N/A,ChIJjxMrxEDyNIgR6HPgOhpjnbM,40.4614529,-79.94636369999999
liberty ave,Western Pennsylvania Hospital: Nguyen Diem K MD,"4800 Friendship Avenue, Pittsburgh",N/A,ChIJjxMrxEDyNIgRWK7PmIXeVDA,40.4614529,-79.94636369999999
liberty ave,Diamond Herbert S MD,"4800 Friendship Avenue, Pittsburgh",N/A,ChIJsVQDskDyNIgR9Wi3jqoC2e4,40.4614529,-79.94636369999999
liberty ave,Pelekanos Michael J MD,"4800 Friendship Avenue, Pittsburgh",N/A,ChIJjxMrxEDyNIgRb7tsTLFoyrk,40.4614529,-79.94636369999999
liberty ave,Holmes Amie E MD,"4800 Friendship Avenue, Pittsburgh",N/A,ChIJjxMrxEDyNIgRZNlXMd26Qro,40.4614529,-79.94636369999999
liberty ave,Western Pennsylvania Hospital: Sealey Mary Lynn MD,"4800 Friendship Avenue, Pittsburgh",N/A,ChIJjxMrxEDyNIgR363A5UqgDds,40.4614529,-79.94636369999999
liberty ave,Western Pennsylvania Hospital: Todd Robert M MD,"4800 Friendship Avenue, Pittsburgh",N/A,ChIJjxMrxEDyNIgRzNaHzelNIG8,40.4614529,-79.94636369999999
liberty ave,Kansal Sheru K MD,"4800 Friendship Avenue, Pittsburgh",N/A,ChIJjxMrxEDyNIgRyXmKyy_q5qY,40.4614529,-79.94636369999999
liberty ave,Western Pennsylvania Hospital: Trop Raymond C DDS,"4800 Friendship Avenue, Pittsburgh",N/A,ChIJjxMrxEDyNIgRUkEz_bgkkqs,40.4614529,-79.94636369999999
liberty ave,"Silva Arslanian, MD","4401 Penn Avenue, Pittsburgh",3,ChIJG5CRGyryNIgR-BcGwHqP3RA,40.46655079999999,-79.9531339
liberty ave,"Dina B. Patterson, MD","4401 Penn Avenue, Pittsburgh",N/A,ChIJKVKDaCryNIgRfxKwBdB1EXY,40.466533,-79.95320339999999
liberty ave,Childrens Hospital of Pittsburgh of UPMC- Neonatology,"4401 Penn Avenue, Pittsburgh",3,ChIJs5YlX0_yNIgRK6S_2uynVY0,40.4664901,-79.9529787
liberty ave,Pediatric Surgery Services at UPMC Children's Hospital of Pittsburgh,"4401 Penn Avenue Floor 3, Pittsburgh",4,ChIJp9jek9DtNIgR4Jle4qUA-4g,40.4670582,-79.95312059999999
liberty ave,PNC ATM,"4800 Friendship Avenue, Pittsburgh",1,ChIJl86PSkfyNIgR3iSV8h761nM,40.4622278,-79.9459186
liberty ave,UPMC Aesthetic Plastic Surgery,"4401 Penn Avenue # 3, Pittsburgh",3,ChIJ6XMqTE_yNIgR_KnLBUAafP8,40.46655079999999,-79.9531339
liberty ave,"Dr. Pushpa A. Viswanathan, MD","4401 Penn Avenue, Pittsburgh",N/A,ChIJ6XMqTE_yNIgRorZ83o-59xE,40.46655079999999,-79.9531339
liberty ave,Heart Center-Children's Hospital: Chrysostomou Constantino Dr,"4401 Penn Avenue, Pittsburgh",N/A,ChIJ6XMqTE_yNIgRZq3fHPHuPiE,40.46635440000001,-79.9534584
liberty ave,UPMC Children's Hospital of Pittsburgh - Perfusion Services,"4401 Penn Avenue, Pittsburgh",3.7,ChIJp9jek9DtNIgRgXzDaoFfM-4,40.46655079999999,-79.9531339
liberty ave,Cassidy Elaine Ann MD,"3, 4401 Penn Avenue, Pittsburgh",N/A,ChIJ6XMqTE_yNIgRLpeMTl7M8rA,40.4667365,-79.9530968
liberty ave,Critical Care Unit,"4401 Penn Avenue, Pittsburgh",N/A,ChIJs5YlX0_yNIgR0j4cAm4kzAc,40.4663465,-79.9532607
liberty ave,Childrens Hospital of Pittsburgh of UPMC: Transplant Surgery,"4401 Penn Avenue, Pittsburgh",4.3,ChIJp9jek9DtNIgRo3SvLsQa15Y,40.4664144,-79.953321
liberty ave,Pediatric Plastic Surgery at UPMC Children's Hospital of Pittsburgh,"4401 Penn Avenue Floor 3, Pittsburgh",5,ChIJ6XMqTE_yNIgRlMyFNxhMgmc,40.46756560000001,-79.95310740000001
liberty ave,Orthopaedic Surgery at UPMC Children's Hospital of Pittsburgh,"4401 Penn Avenue Floor 2, Pittsburgh",2.6,ChIJtynsW0_yNIgRTdNaWkwDltk,40.46756560000001,-79.95310740000001
liberty ave,"Inna Vaisleib, MD","4401 Penn Avenue, Pittsburgh",N/A,ChIJtynsW0_yNIgR_lrQFRfU_ow,40.46756560000001,-79.95310740000001
liberty ave,UPMC Children's Hospital of Pittsburgh Heart Institute,"4401 Penn Avenue Floor 3, Pittsburgh",4.3,ChIJ6XMqTE_yNIgR7SZivdIgez8,40.46731529999999,-79.95358999999999
liberty ave,Bochkoris Matthew J MD,"4401 Penn Avenue, Pittsburgh",1,ChIJY94sTk_yNIgR8wpXQ-88wOo,40.4663995,-79.9524385
liberty ave,"Glenn Cannon, MD","4401 Penn Avenue, Pittsburgh",5,ChIJIRzYXk_yNIgRgyy2AGRpGHY,40.46644999999999,-79.952553
liberty ave,"Allyson Larkin, MD","4401 Penn Avenue, Pittsburgh",N/A,ChIJaSLTT0_yNIgR5KGVcnKetY0,40.4668465,-79.9526985
liberty ave,UPMC Children's Hospital of Pittsburgh,"4401 Penn Avenue, Pittsburgh",4,ChIJi5Ly2wFiNIgRP9zMK-dVM5E,40.4670523,-79.9535322
liberty ave,"Jacqueline Kreutzer, MD","4401 Penn Avenue, Pittsburgh",N/A,ChIJG5CRGyryNIgRjS5xFhI2tbw,40.4663564,-79.95296619999999
liberty ave,"Dr. Christina R. Nguyen, MD","4401 Penn Avenue, Pittsburgh",N/A,ChIJ6XMqTE_yNIgRP4AD3zwRNyo,40.4663564,-79.95296619999999
liberty ave,"Brian S. Martin, DMD, MS","4401 Penn Avenue, Pittsburgh",N/A,ChIJY94sTk_yNIgRG5Od79L7p9Q,40.466488,-79.9529208
liberty ave,"George Kingsley Gittes, MD","4401 Penn Avenue, Pittsburgh",1,ChIJG5CRGyryNIgR_rdSWlIx2PA,40.4663564,-79.95296619999999
liberty ave,Erkan Elif MD,"4401 Penn Avenue, Pittsburgh",N/A,ChIJ6XMqTE_yNIgRyOMeoANK_cA,40.4664079,-79.9523675
liberty ave,"Andrew McCormick, MD","4401 Penn Avenue, Pittsburgh",N/A,ChIJaSLTT0_yNIgRyW9haf6O-8E,40.4664014,-79.9523758
liberty ave,"Geoffrey James Bond, MD","4401 Penn Avenue, Pittsburgh",5,ChIJ6XMqTE_yNIgRwecEN5c_gPw,40.4664764,-79.9529226
liberty ave,Davis Peter MD,"4401 Penn Avenue, Pittsburgh",N/A,ChIJ6XMqTE_yNIgRqk06MSHQEKk,40.4662527,-79.9530757
liberty ave,"Dr. Patricia J. Dubin, MD","4401 Penn Avenue, Pittsburgh",N/A,ChIJ6XMqTE_yNIgRadHj-HzE5Co,40.4663564,-79.95296619999999
liberty ave,"Mary E. Cook, CRNP","4401 Penn Avenue, Pittsburgh",N/A,ChIJaSLTT0_yNIgRW9TUPIpDg2o,40.4664078,-79.9523906
penn ave,The Church Brew Works,"3525 Liberty Avenue, Pittsburgh",4.3,ChIJKT2mUrXzNIgRP_zITVG6-1s,40.46198609999999,-79.9640806
penn ave,Yoga Factory Pittsburgh - Lawrenceville,"3418 Penn Avenue, Pittsburgh",4.8,ChIJq3Ze4NzzNIgRZQBgqyzz1FA,40.46294889999999,-79.9664827
penn ave,Round Corner Cantina,"3720 Butler Street, Pittsburgh",4.3,ChIJ8zAcVLPzNIgRhsHbKaVgfnM,40.466703,-79.964259
penn ave,Arsenal Cider House & Wine Cellar,"300 39th Street, Pittsburgh",4.8,ChIJGamnn0vyNIgRa5owM6bs0y0,40.465108,-79.96092
penn ave,3 Rivers Wet Weather Inc,"3901 Penn Avenue #3, Pittsburgh",3.8,ChIJEXBL8kvyNIgRCNYq6uHVnpw,40.4657366,-79.95951629999999
penn ave,Allegheny Tuberculosis Program,"3901 Penn Avenue, Pittsburgh",N/A,ChIJC9ch6kvyNIgRH1ZV86Ht1MY,40.4654045,-79.95903969999999
penn ave,Espresso A Mano,"3623 Butler Street, Pittsburgh",4.7,ChIJ_85cpLTzNIgRQYRrGbqmWlI,40.4660544,-79.9651361
penn ave,"Robleto Kuruce, PLLC","3706 Butler Street, Pittsburgh",5,ChIJTTIhslbxNIgRNT5HiQJTdMw,40.4663709,-79.9643997
penn ave,DJ Otto,"300 39th Street, Pittsburgh",4.1,ChIJfbGgn0vyNIgRDuacDe4s49k,40.46508499999999,-79.960921
penn ave,William Penn Tavern,"3810 Butler Street, Pittsburgh",4.4,ChIJi32qHBHyNIgRxPtrUFhiLBc,40.4669023,-79.9639902
penn ave,Piccolo Forno,"3801 Butler Street, Pittsburgh",4.5,ChIJ5UoaTrPzNIgR67C6D3W0d-M,40.4670037,-79.9643576
penn ave,Canterbury Place,"310 Fisk Street, Pittsburgh",3.8,ChIJrY0Erk7yNIgRFJ9bMrmmo9E,40.4659797,-79.9579565
penn ave,Grey Box Theatre,"3595 Butler Street, Pittsburgh",3.6,ChIJKYQMlbTzNIgRgs2tG9n9roU,40.4653646,-79.9655398
penn ave,Arsenal Middle School,"220 40th Street, Pittsburgh",4.4,ChIJq2xE6kzyNIgREMWZaBpUETw,40.4672279,-79.9628524
penn ave,Allegheny County Labs Department,"3901 Penn Avenue #8, Pittsburgh",N/A,ChIJEXBL8kvyNIgRvG5meorVzL0,40.46548609999999,-79.959729
penn ave,Sherri Williams MSEd LPC NCC ~ TheLovingChoice,"3495 Butler Street #101, Pittsburgh",N/A,ChIJjZAsLTzyNIgRE1KnuK0niQM,40.463984,-79.96646009999999
penn ave,The Brewer's Bar,"3315 Liberty Avenue, Pittsburgh",4.2,ChIJaQ8hd8rzNIgRc6OJnuQEilw,40.4614603,-79.9677561
penn ave,Common Plea Catering,"3700 Liberty Avenue, Pittsburgh",4.3,ChIJNaKEjMjzNIgREcTsnLlq4cI,40.4618872,-79.9617968
penn ave,Zion Evangelical Lutheran Church,"237 37th Street, Pittsburgh",4.4,ChIJMVsySUvyNIgR0oB6cwZTZCM,40.4653802,-79.9635703
penn ave,Informatics Studio Inc,"3509 Butler Street, Pittsburgh",N/A,ChIJlbLX_LTzNIgRROa4ekWQnrU,40.464351,-79.9663659
penn ave,MASIMEX,"3812 Penn Avenue, Pittsburgh",N/A,ChIJbYS2vEvyNIgRyOH4EqFezo0,40.464444,-79.96064700000001
penn ave,The Traveling Photo Booth,"256 37th Street, Pittsburgh",5,ChIJAVe4kU7yNIgRvwBXImt-j9I,40.4648932,-79.96332919999999
penn ave,Maniküre,"3516 Butler Street, Pittsburgh",4.7,ChIJffdF_LTzNIgREv9NA2KdlWM,40.464374,-79.965853
penn ave,Trim Pittsburgh,"3508 Butler Street, Pittsburgh",4.7,ChIJJeehnXPyNIgRfy7Wc1y8RkE,40.46415399999999,-79.96598039999999
penn ave,Province of St. Augustine,"220 37th Street, Pittsburgh",N/A,ChIJM3MQtLTzNIgRn2k3eOdXSGU,40.4657442,-79.96463709999999
penn ave,Take A Break Bar,"3825 Penn Avenue, Pittsburgh",4.3,ChIJw9-dokvyNIgRsEY8xk496LY,40.4648945,-79.9606154
penn ave,Byham House,"3501 Liberty Avenue, Pittsburgh",5,ChIJ9fqUT7XzNIgRRWe82b_5ChY,40.4619632,-79.9646154
penn ave,Marbella Event Furniture and Decor Rental,"3600 Liberty Avenue, Pittsburgh",N/A,ChIJ3wrxq0ryNIgR-6FqZgtMzCg,40.4616342,-79.9637588
penn ave,All Occasions Party Rental,"3600 Liberty Avenue, Pittsburgh",3.7,ChIJX7s0qUryNIgRBMSrVvV-F7o,40.4616342,-79.9637588
penn ave,Square One Medical,"3706 Butler Street, Pittsburgh",5,ChIJffJYOd9iNIgRoHI4P00oM2c,40.4663709,-79.9643997
penn ave,Removery Tattoo Removal & Fading,"3603 Butler Street, Pittsburgh",5,ChIJi3AkvLTzNIgR_3Z9c9wvVyY,40.4655902,-79.9653227
penn ave,Morcilla,"3519 Butler Street, Pittsburgh",4.7,ChIJ4SrQ-rTzNIgRBCWal8EzERk,40.4645709,-79.9661648
penn ave,Krishna Ministry,"3513 Butler Street # 2, Pittsburgh",N/A,ChIJf6q3-7TzNIgRZg-JTn4f3Og,40.4644379,-79.96627389999999
penn ave,"ISKCON Pittsburgh, PA","3513A Butler Street, Pittsburgh",5,ChIJlQpx-7TzNIgRNfAhdkf7PvQ,40.464408,-79.9663065
penn ave,Pulchra,"3505 Butler Street, Pittsburgh",3.7,ChIJ5ZZqmLXzNIgRu7tBBODSjqs,40.46422719999999,-79.96640459999999
penn ave,Retired Senior Volunteer Program,"3505 Butler Street #1314, Pittsburgh",N/A,ChIJlx_eQFjxNIgRBTncDO2iipU,40.4642281,-79.9664047
penn ave,McDonough's Antiques,"3617 Butler Street, Pittsburgh",4.3,ChIJLSSnpLTzNIgRq8V1rVS_31I,40.46593000000001,-79.9650705
penn ave,Dreadnought Wines,"3401 Liberty Avenue, Pittsburgh",4.5,ChIJab2bXbXzNIgRDj2PQaJYljo,40.461966,-79.96541020000001
penn ave,Soiree Partners,"3401 Liberty Avenue, Pittsburgh",5,ChIJq6p6XbXzNIgRfBKBEvXYo9Y,40.46198389999999,-79.9654482
penn ave,Petraglia Auto Service,"3800 Liberty Avenue, Pittsburgh",4.7,ChIJawkyZkryNIgRISvzcd-KmxQ,40.4621558,-79.960595
penn ave,Blackbird Health,"3706 Butler Street, Pittsburgh",5,ChIJJcs8taFiNIgRaw_5Slzkr5c,40.4663709,-79.9643997
penn ave,The Mihok Law Firm,"3706 Butler Street Suite 306, Pittsburgh",5,ChIJFyCKQXTyNIgR-YA3TXSeG80,40.4663709,-79.9643997
penn ave,Jovie of Pittsburgh,"3706 Butler Street, Pittsburgh",5,ChIJA_D0dbuLNIgR0SCo0jyS84I,40.4663709,-79.9643997
penn ave,"Evolve Coaching, Inc.","3706 Butler Street, Pittsburgh",N/A,ChIJC0kalG3xNIgR2N69h4R0YB0,40.4663709,-79.9643997
penn ave,LOYALTY ENTERTAINMENT ️,"3441 Butler Street, Pittsburgh",5,ChIJ6202DVZbNIgRF2gsd4mgpm8,40.4639279,-79.9666713
penn ave,Phoenix Boutique,"3627 Butler Street, Pittsburgh",4.7,ChIJ-_-tprTzNIgRvqYUNU98OK8,40.4661902,-79.9649519
penn ave,Palate Partners School of Wine & Spirits,"3401 Liberty Avenue, Pittsburgh",4,ChIJAXOSXbXzNIgRi1dLM_0UyOs,40.4619066,-79.9655698
penn ave,The Pittsburgh Juice Company,"3418 Penn Avenue, Pittsburgh",4.5,ChIJHTOlDLXzNIgRjU4td8umbJ8,40.46296,-79.9665917
penn ave,Doughboy Square Apartments,"3459 Butler Street, Pittsburgh",2.2,ChIJ5W0_qLXzNIgRlUPeVcmsNB8,40.4635706,-79.9668276
penn ave,Long Story Short,"3705 Butler Street, Pittsburgh",4.6,ChIJtcpyWLPzNIgR2RYLdF1jMVo,40.46650410000001,-79.9647863
penn ave,Jeremy Raymer Outdoor Art Gallery,"183 35th Street, Pittsburgh",4.9,ChIJaR9SVLTzNIgR5aYcaS_sqwg,40.4643384,-79.9670029
penn ave,Square View Apartments,"3433 Butler Street, Pittsburgh",3.8,ChIJTRMtqLXzNIgRspgY1wjaVo8,40.46320850000001,-79.9670136
penn ave,Senko Construction Inc,"3816 Butler Street, Pittsburgh",3,ChIJs4kJiCfyNIgRkpzdx2_s8QU,40.46707499999999,-79.96364
penn ave,American Crypto Bitcoin ATM,"3349 Liberty Avenue, Pittsburgh",4,ChIJKaOvfrXzNIgRwh1z1lFLpZE,40.4618524,-79.9665054
penn ave,Iron City Bikes Lawrenceville,"3822 Butler Street, Pittsburgh",4.9,ChIJDX4Zs0zyNIgRyZul7g-px6g,40.4671337,-79.96387059999999
penn ave,Pittsburgh HVAC Services,"3414 Charlotte Street, Pittsburgh",4.9,ChIJ_wHxH5TyNIgRKmVmJ0rXxiA,40.4633499,-79.9675818
penn ave,Mothership Moto,"3354 Penn Avenue, Pittsburgh",4.6,ChIJHQJznLXzNIgR30djnDAPd_E,40.4624256,-79.96715879999999
penn ave,Graham's Barber Shop,"3816 Butler Street, Pittsburgh",4.8,ChIJf_DQs0zyNIgRXW_C3Llhy7k,40.4672452,-79.9638114
penn ave,Belvedere’s Ultra-Dive,"4016 Butler Street, Pittsburgh",3.8,ChIJTS0VAU3yNIgRA8pOtAG_B6g,40.4689441,-79.9615335
penn ave,Thunderbird Café & Music Hall,"4053 Butler Street, Pittsburgh",4.7,ChIJjfRLD03yNIgRLdf1DsJeq9U,40.46939909999999,-79.9616095
penn ave,CYA-Stephen Foster Community Center,"286 Main Street, Pittsburgh",4.2,ChIJH6L_JkzyNIgRkrFlE_EAj9o,40.46766799999999,-79.958663
penn ave,Carnegie Library of Pittsburgh - Lawrenceville,"279 Fisk Street, Pittsburgh",4.7,ChIJHwO5JEzyNIgRxnBpcMUX120,40.4676128,-79.9590515
penn ave,UPMC St. Margaret Lawrenceville Family Health Center,"3937 Butler Street, Pittsburgh",3.4,ChIJ-cG-xEzyNIgRzy312BgaCN0,40.4688796,-79.9634715
penn ave,Fine Wine & Good Spirits,"4065 Butler Street, Pittsburgh",4.5,ChIJfc_cpk3yNIgRYXB_NI3e_M8,40.4695123,-79.9614182
penn ave,Fazio's Pizza,"4028 Penn Avenue, Pittsburgh",4.6,ChIJfdbjNknyNIgRfLIY5-dxlQQ,40.46527080000001,-79.95683509999999
penn ave,Tram's Kitchen,"4050 Penn Avenue, Pittsburgh",4.6,ChIJzV7wK0nyNIgRgtFZ1GerHV0,40.46540299999999,-79.955962
penn ave,Pittsburgh Fire Bureau Station 6,"3958 Penn Avenue, Pittsburgh",5,ChIJ7fEjXEnyNIgRRa01PU_r0LY,40.46488489999999,-79.958049
penn ave,Distinctive Detailing,"199 38th Street, Pittsburgh",4.9,ChIJlXw3s0zyNIgRF1RGd-wFt1s,40.46726,-79.96459109999999
penn ave,York Commons,"4003 Penn Avenue, Pittsburgh",3.5,ChIJ-SRFTEnyNIgRh2GuecKy29c,40.46574820000001,-79.9575601
penn ave,Eleventh Hour Brewing,"3711 Charlotte Street, Pittsburgh",4.6,ChIJpwwDZ7PzNIgRd9bbaWBbXm4,40.467035,-79.9654264
penn ave,Polish Eagles Society,"208 Fisk Street, Pittsburgh",4.9,ChIJ-725AE3yNIgRaKfBaozVOKc,40.4689862,-79.9613179
penn ave,RE/MAX REAL ESTATE SOLUTIONS,"4020 Butler Street, Pittsburgh",5,ChIJG6HrBk3yNIgRmdsjZoSH3T8,40.4691,-79.96148730000002
penn ave,Brian - Realtor,"4020 Butler Street, Pittsburgh",4.7,ChIJ9TaBEUpZNIgRYexuCz19uKY,40.4691015,-79.9614952
penn ave,Lawrenceville Family Health Ct: Yuan David T MD,"3937 Butler Street, Pittsburgh",N/A,ChIJ-cG-xEzyNIgRryE9fwcDv7g,40.4689006,-79.9634566
penn ave,Pediatric Child Advocacy Center at UPMC Children's Hospital of Pittsburgh,"4401 Penn Avenue Floor 2, Pittsburgh",3,ChIJp9jek9DtNIgR3mNIi9tacrM,40.4659273,-79.9547027
penn ave,Arsenal Bowl,"212 44th Street, Pittsburgh",4.1,ChIJO8AsClLyNIgRPAgbZDmdado,40.471189,-79.9595354
penn ave,Brillobox,"4104 Penn Avenue, Pittsburgh",4.5,ChIJxxYfM0_yNIgRM00-BqKCn3s,40.4656218,-79.95477149999999
penn ave,"Todd Pungratz, MSW, LCSW, CAADC","4111 Penn Avenue, Pittsburgh",N/A,ChIJQ6eHW9_zNIgRc_J9S0Ld2Jw,40.4658925,-79.9548051
penn ave,Industry Public House,"4305 Butler Street, Pittsburgh",4.1,ChIJv6siiU3yNIgRY1K4PUwSTvY,40.47092200000001,-79.960374
penn ave,Better Stories Psychiatry,"4111 Penn Avenue, Pittsburgh",3.4,ChIJC_DTIJTzNIgRxNQFKqfdu0U,40.4659582,-79.9548239
penn ave,Wildcard,"4209 Butler Street, Pittsburgh",4.9,ChIJ0zMjhU3yNIgRccfYAk4oczI,40.4705707,-79.96065329999999
penn ave,Pittsburgh Furniture Company,"4312 Butler Street, Pittsburgh",4.8,ChIJqX9Vik3yNIgRdgSZ4jcKDXg,40.47093640000001,-79.9600074
penn ave,"CRH Catering Co., Inc.","4110 Davison Street, Pittsburgh",1.9,ChIJId-e2U3yNIgR37cU6V2EEUU,40.46923100000001,-79.958733
penn ave,"Danielle Staresinic, OD","4321 Butler Street, Pittsburgh",N/A,ChIJga9hmE3yNIgRquJ6B35hcF0,40.4713009,-79.960224
penn ave,H&R Block,"4021 Butler Street, Pittsburgh",4.3,ChIJj8Lcu_GaqokRUwdvoWIE29g,40.469355,-79.96178669999999
penn ave,Andy Johanson,"Side Door, 4100 Davison Street, Pittsburgh",5,ChIJp-oui03yNIgR_xwMPLd8VV8,40.46898319999999,-79.9589723
penn ave,Gypsy Tattoo Parlor,"4061 Penn Avenue, Pittsburgh",4.8,ChIJr4J61U7yNIgR6z33EovBKOo,40.46567340000001,-79.9556443
penn ave,Schifino Design,"347 Main Street, Pittsburgh",N/A,ChIJowdb207yNIgRvSL2iGbjG-I,40.4666398,-79.95628459999999
penn ave,Row House Cinema - Lawrenceville,"4115 Butler Street, Pittsburgh",4.8,ChIJg3lfn03yNIgRsLsytAqbydA,40.469939,-79.96106499999999
penn ave,Western Union,"3939 Butler Street, Pittsburgh",3.7,ChIJa1RMJk3yNIgRpRPg6fQGf1o,40.4690835,-79.96323900000002
penn ave,Merenstein Joel H MD,"3937 Butler Street, Pittsburgh",N/A,ChIJYzG6xUzyNIgRlA-HqW3hTJ0,40.4689006,-79.9634566
penn ave,"Karen M. Moyer, MD","3937 Butler Street, Pittsburgh",5,ChIJYzG6xUzyNIgR33B-WNhMfQo,40.4689006,-79.9634566
penn ave,Geppetto Cafe,"4121 Butler Street, Pittsburgh",4.7,ChIJ9y_Onk3yNIgRg1Zzijr0ge4,40.47008049999999,-79.9609069
penn ave,Hairsmith,"4043 Penn Avenue, Pittsburgh",4.9,ChIJq0pbLUnyNIgRDq57rHU_m3E,40.4656657,-79.95630109999999
penn ave,Pediatric Spina Bifida Services at UPMC Children's Hospital of Pittsburgh,"4401 Penn Avenue Floor 2, Pittsburgh",N/A,ChIJ6XMqTE_yNIgR7nE31-7x2fc,40.46731529999999,-79.9535901
penn ave,Pediatric Sickle Cell Clinic at UPMC Children's Hospital of Pittsburgh,"4401 Penn Avenue Floor 9, Pittsburgh",N/A,ChIJ6XMqTE_yNIgRzlAuO9GvMOQ,40.46731529999999,-79.9535901
penn ave,"Ingrid Libman DeGordon, MD, PhD","4401 Penn Avenue Floor 8, Pittsburgh",N/A,ChIJ6XMqTE_yNIgR6UYeUSY68tk,40.46756560000001,-79.95310740000001
penn ave,"Randy Windreich, MD","4401 Penn Avenue, Pittsburgh",5,ChIJ6XMqTE_yNIgR2dZYGRpqJqg,40.46756560000001,-79.95310740000001
penn ave,Burns Lindsay A MD,Pittsburgh,N/A,ChIJ6XMqTE_yNIgRMiaETF7PmRk,40.46756560000001,-79.95310740000001
penn ave,"Dr. Mihaela Visoiu, MD","4401 Penn Avenue, Pittsburgh",N/A,ChIJ6XMqTE_yNIgRBJBZFzw79W8,40.46756560000001,-79.95310740000001
penn ave,Radiology and Imaging Services at Children's Hospital of Pittsburgh,"4401 Penn Avenue Floor 2, Pittsburgh",5,ChIJY94sTk_yNIgRsMnB17OWsiA,40.46756560000001,-79.95310740000001
penn ave,"Julie Giuffre, DNP, CRNP","4401 Penn Avenue, Pittsburgh",N/A,ChIJ6XMqTE_yNIgR7DWVvq76TPU,40.46756560000001,-79.95310740000001
penn ave,Vitale Melissa A MD,"4401 Penn Avenue # 2400, Pittsburgh",N/A,ChIJ6XMqTE_yNIgRggMCI4Lzi6c,40.4660311,-79.95402519999999
penn ave,"Dr. David H. Perlmutter, MD","4401 Penn Avenue, Pittsburgh",N/A,ChIJ6XMqTE_yNIgR1brZWCeanvg,40.46756560000001,-79.95310740000001
penn ave,Ellis Demetrius MD,"4401 Penn Avenue, Pittsburgh",N/A,ChIJ6XMqTE_yNIgRgtN2xRrJ4js,40.46756560000001,-79.95310740000001
penn ave,"Raymond C Maguire, DO","4401 Penn Avenue Floor 3, Pittsburgh",5,ChIJ6XMqTE_yNIgRvnngzR0C0_k,40.46756560000001,-79.95310740000001
penn ave,"Marcus Malek, MD","4401 Penn Avenue, Pittsburgh",5,ChIJY94sTk_yNIgRxv4YiQ1cJvA,40.4665754,-79.9535047
penn ave,"Francis X. Schneck, MD","4401 Penn Avenue, Pittsburgh",3.4,ChIJ6XMqTE_yNIgR6LbGdoN_Jtw,40.46756560000001,-79.95310740000001
penn ave,Bates Carlton M MD,Pittsburgh,N/A,ChIJ6XMqTE_yNIgRj2d6R-sCdhQ,40.46756560000001,-79.95310740000001
penn ave,"Dr. Frederick S. Sherman, MD","4401 Penn Avenue, Pittsburgh",N/A,ChIJgTOAX3LyNIgReDkuyav_LRk,40.46756560000001,-79.95310740000001
penn ave,"Dr. Lawrence M. Borland, MD","4401 Penn Avenue, Pittsburgh",N/A,ChIJ6XMqTE_yNIgRPiyCVP7Nl-c,40.46756560000001,-79.95310740000001
penn ave,"Lama Khatib, MD","4401 Penn Avenue Aob, Suite 3200, Pittsburgh",N/A,ChIJaSLTT0_yNIgRkVlAW3OH_uE,40.46756560000001,-79.95310740000001
penn ave,"Dr. Jaime Haidet, MD","4401 Penn Avenue, Pittsburgh",N/A,ChIJ6XMqTE_yNIgRLm1wTy2G5aY,40.46756560000001,-79.95310740000001
penn ave,"Whitney Sunseri, MD","4401 Penn Avenue, Pittsburgh",3,ChIJaSLTT0_yNIgRB2qg9k8dlg4,40.46756560000001,-79.95310740000001
penn ave,"Dr. Satyanarayana Gedela, MD","4401 Penn Avenue, Pittsburgh",1,ChIJaSLTT0_yNIgRaKVzzTKMFP8,40.46756560000001,-79.95310740000001
penn ave,"Hey Jin Chong, MD, PhD","4401 Penn Avenue Floor 3, Pittsburgh",1,ChIJ6XMqTE_yNIgRJJt6rBT2eRU,40.46756560000001,-79.95310740000001
penn ave,"Dr. Isabella M. Picciotti, MD","4401 Penn Avenue, Pittsburgh",N/A,ChIJ6XMqTE_yNIgRlJ8Ys6PS34w,40.46756560000001,-79.95310740000001
penn ave,"Idris V Evans, MD","4401 Penn Avenue, Children's Hospital Drive, Pittsburgh",N/A,ChIJaSLTT0_yNIgRZp5IHaFeGJY,40.46756560000001,-79.95310740000001
penn ave,Haney Jessica OD,"4401 Penn Avenue, Pittsburgh",N/A,ChIJ6XMqTE_yNIgRBlhSEkbHD7s,40.46756560000001,-79.95310740000001
penn ave,"Lindsay Roberts, AUD","4401 Penn Avenue, Pittsburgh",N/A,ChIJaSLTT0_yNIgRWD1p4uOdGDI,40.46756560000001,-79.95310740000001
penn ave,"Dr. Melissa B. Robert, MD","4401 Penn Avenue, Pittsburgh",N/A,ChIJ6XMqTE_yNIgRL08TIl84iAE,40.46756560000001,-79.95310740000001
penn ave,"Dr. Julia C. Kistner, MD","4401 Penn Avenue, Pittsburgh",N/A,ChIJ6XMqTE_yNIgRaBHZnMrnn9M,40.46756560000001,-79.95310740000001
penn ave,Tuchman Jay B MD,"4401 Penn Avenue, Pittsburgh",N/A,ChIJ6XMqTE_yNIgR5QzhB78tE7M,40.46756560000001,-79.95310740000001
penn ave,New Amsterdam,"4421 Butler Street, Pittsburgh",4.1,ChIJ66LSFVLyNIgRtZXizJSCCGk,40.472149,-79.95953
penn ave,Ronald McDonald House,"451 44th Street, Pittsburgh",4.4,ChIJw6xBTAryNIgRl0uXcu-HIKE,40.467431,-79.9539156
penn ave,"Ira Bergman, MD, PhD","4401 Penn Avenue Floor 2, Pittsburgh",1,ChIJ6XMqTE_yNIgRd6Q4h9ycXUk,40.4670776,-79.9532129
penn ave,"Kevin Mollen, MD","4401 Penn Avenue, Pittsburgh",N/A,ChIJY94sTk_yNIgR6sEBzh41dAE,40.4666054,-79.95336739999999
penn ave,"Jenna Gaesser, MD","4401 Penn Avenue, Pittsburgh",5,ChIJaSLTT0_yNIgRr2gpE-unsj8,40.4665335,-79.9534884
penn ave,Dental Services,"4401 Penn Avenue, Pittsburgh",2.5,ChIJY94sTk_yNIgR-eO9uL1JwVk,40.46670309999999,-79.95330729999999
penn ave,La Gourmandine,"4605 Butler Street, Pittsburgh",4.8,ChIJ2RmULlLyNIgRiyhyWkajxPI,40.4731288,-79.9588764
penn ave,"Hannah Winchell, PA-C","4401 Penn Avenue Floor 3, Pittsburgh",5,ChIJaSLTT0_yNIgRhT0bOPBRAFo,40.4671883,-79.95312009999999
penn ave,"Victor Morell, MD","4401 Penn Avenue Floor 3, Pittsburgh",5,ChIJY94sTk_yNIgRH9oblPIQDWA,40.4670582,-79.95312059999999
penn ave,"Erin Colvin, CRNP","4401 Penn Avenue Floor 3, Pittsburgh",N/A,ChIJ6XMqTE_yNIgRFpb2KNMnHYc,40.4670582,-79.95312059999999
penn ave,Clarissa Boutique,"4603 Butler Street, Pittsburgh",4.9,ChIJ09YbR2nxNIgRampHzOVXKT0,40.4730732,-79.9589182
penn ave,"Dr. Tricia Pil, MD","4401 Penn Avenue, Pittsburgh",N/A,ChIJaSLTT0_yNIgR0LDwOgMWYPY,40.46674280000001,-79.95324719999999
penn ave,"Joseph Dohar, MD","4401 Penn Avenue Floor 3, Pittsburgh",3.8,ChIJs5YlX0_yNIgR9GrHUpy2VpQ,40.46756560000001,-79.95310740000001
butler st,Lawrenceville,Pittsburgh,N/A,ChIJ6Rdn2lLyNIgRE86PqbGEIps,40.4698118,-79.9609176
butler st,Stillpoint - Soto Zen,"137 41st Street, Pittsburgh",4,ChIJJ9h0Wk3yNIgR4u3WUgLXsrM,40.47102719999999,-79.9632428
butler st,Arsenal 201,"147 39th Street, Pittsburgh",4.3,ChIJvfXkI7PzNIgRM3oWhuiiVYU,40.468942,-79.96468159999999
butler st,Cattivo,"146 44th Street, Pittsburgh",4.5,ChIJ0yg081LyNIgR1f3iUqlu3Pw,40.4725388,-79.9616418
butler st,Lawrenceville Vision Care,"4321 Butler Street, Pittsburgh",4.2,ChIJga9hmE3yNIgRLBBmbdx5mVg,40.47124110000001,-79.9601031
butler st,Attack Theatre,"212 45th Street, Pittsburgh",4.5,ChIJ23Frx8TzNIgRhpVoOyGa7g0,40.4718797,-79.9591766
butler st,Steel Dragon,"100 43rd Street #113, Pittsburgh",5,ChIJFapuyVLyNIgRm7k-yEupG08,40.4728608,-79.9638889
butler st,O'Hara Terry,"145 44th Street, Pittsburgh",5,ChIJ73MZ9lLyNIgRuH0d_AouLBc,40.47284570000001,-79.9612628
butler st,Lawrenceville Corporation,"100 43rd Street #208, Pittsburgh",4.8,ChIJ5bNuyVLyNIgRHvWACuGYilI,40.4729243,-79.96394649999999
butler st,Magisterial District Court 05-03-10,"4211 Butler Street, Pittsburgh",2.1,ChIJY5JyhU3yNIgRqQThQZukgiI,40.4706663,-79.9606715
butler st,Bartosiewicz Agency,"4311 Butler Street, Pittsburgh",5,ChIJx0d-ClLyNIgRzzGFZVdR8VA,40.4710292,-79.960211
butler st,United States Postal Service,"186 42nd Street, Pittsburgh",3.1,ChIJj_Gsgk3yNIgRDui2ZnQLKuM,40.47041979999999,-79.96120739999999
butler st,R Kyndall Development Group,"186 42nd Street, Pittsburgh",5,ChIJI73-7ZxiNIgRztvDVMtr-cQ,40.4704441,-79.9612604
butler st,Dijlah Restaurant and Cafe,"4130 Butler Street, Pittsburgh",4.2,ChIJDxKskE3yNIgRZVoDJ9pI2OE,40.4701807,-79.9605352
butler st,Allegheny County Maintenance District 7,"40th Street, Pittsburgh",N/A,ChIJaZjxzqTzNIgRF_5vdAv65Mc,40.47085259999999,-79.96496929999999
butler st,National Robotics Engineering Center,"10 40th Street, Pittsburgh",4.9,ChIJI8LyO63zNIgRvKb7FYwQ1MQ,40.4728736,-79.9650268
butler st,Associated Artists of Pittsburgh,"100 43rd Street, Pittsburgh",5,ChIJfwYvHwryNIgRpdJN93p_A-A,40.4731817,-79.96369109999999
butler st,Keystone Vapors Lawrenceville,"4328 Butler Street, Pittsburgh",3.9,ChIJ1RNoC1LyNIgRpmnKRVfcOe0,40.4713332,-79.9597467
butler st,Mello & Sons,"4405 Butler Street, Pittsburgh",5,ChIJIzBQbVLyNIgRrBPh9AbBoPI,40.4717501,-79.9598832
butler st,Vestis,"4415 Butler Street, Pittsburgh",4.9,ChIJk_9FsFfyNIgRT_QUM9bNxI4,40.4719428,-79.95956819999999
butler st,Mary Barensfeld Architecture,"212 45th Street 1st Fl - Suite 3, Pittsburgh",N/A,ChIJj8EVzxd-j4AReliPyYIR7Fc,40.4719294,-79.9591294
butler st,Fort Willow Developers,"115 41st Street, Pittsburgh",3,ChIJW0JBqlLyNIgRlR48xfww3kk,40.4714289,-79.96377269999999
butler st,MSTR,"4504 Butler Street, Pittsburgh",4.7,ChIJUWqRGFLyNIgR_O-Ip_85cuc,40.4722254,-79.95893230000001
butler st,ATM,"146 44th Street, Pittsburgh",N/A,ChIJSRISCk3yNIgRupmzeX_KT7Q,40.4725156,-79.9616872
butler st,Karen Meyers Photography,"100 43rd Street, Pittsburgh",5,ChIJ232pm-jtNIgRVtP5cYCjr_o,40.4728608,-79.9638889
butler st,McCormick Architects and Designers,"100 43rd Street, Pittsburgh",5,ChIJ5bNuyVLyNIgRJOTQAFLkNYQ,40.47287370000001,-79.9638856
butler st,Neoforma Design,"100 43rd Street #211, Pittsburgh",N/A,ChIJ5bNuyVLyNIgRp40m1MyOx2c,40.47287370000001,-79.9638856
butler st,"ProtoInnovations, LLC","100 43rd Street, Pittsburgh",5,ChIJ5bNuyVLyNIgR-mAZxBV-GuI,40.47287370000001,-79.9638856
butler st,TRVR Handwired Electronics,"100 43rd Street #112, Pittsburgh",N/A,ChIJGcEFy1LyNIgRHVUD60B3CmA,40.4728738,-79.9638856
butler st,"Michael R. Cutitta, DC","4733 Butler Street, Pittsburgh",N/A,ChIJ41BeW1HyNIgRsI8bbsk8zMI,40.4750249,-79.9579383
butler st,Allegheny Cemetery,"4734 Butler Street, Pittsburgh",4.8,ChIJ3WER90PyNIgR52OGokXT6ZA,40.47497200000001,-79.957413
butler st,Genesis Concrete Structures,"4615 Eden Way, Pittsburgh",N/A,ChIJr1IJLFLyNIgR9X_Edoo-OP8,40.4735108,-79.9588854
butler st,Lawrenceville Healthy Active Living Community Center,"4600 Butler Street, Pittsburgh",3,ChIJyeyMmlHyNIgRK1cCVv9Kerg,40.4730696,-79.95806549999999
butler st,Our Lady of the Angels Parish,"333 45th Street, Pittsburgh",4.4,ChIJ6YTkSk7yNIgRuQKmmFEvJjs,40.4699635,-79.9558283
butler st,The Abbey on Butler Street,"4635 Butler Street, Pittsburgh",4.3,ChIJb026fVHyNIgRp717s78G9n0,40.4738272,-79.9584053
butler st,"PrimeLending, A PlainsCapital Company - Pittsburgh","4723 Butler Street Suite 1, Pittsburgh",4.9,ChIJv69z9nPxNIgRKqBAnFa6LrM,40.4747954,-79.9579311
butler st,Setex Technologies,"91 43rd Street #130, Pittsburgh",4,ChIJofrRzVLyNIgRSQAH7VLKQh4,40.473351,-79.963422
butler st,"Carnegie Robotics, LLC","4501 Hatfield Street, Pittsburgh",5,ChIJ-W49Z63zNIgRgZ4Tix7ddo8,40.47451579999999,-79.962166
butler st,Curiosity Shop,"100 43rd Street #116, Pittsburgh",4.9,ChIJGcEFy1LyNIgRBVPbKuKqgB8,40.47292839999999,-79.96385380000001
butler st,AlphaLab,"113 47th Street, Pittsburgh",4.8,ChIJy43BD3HxNIgRhqkZcVnKGQo,40.47617519999999,-79.96088379999999
butler st,Caterpillar Pittsburgh Automation Center,"105 47th Street, Pittsburgh",5,ChIJtdG-T7jzNIgRsB45qhRgJKg,40.4765387,-79.9610531
butler st,Tower Drafting Services,"4739 Butler Street, Pittsburgh",N/A,ChIJR1ncWlHyNIgRx3RefEY5BG0,40.4751791,-79.9579503
butler st,Material Witness Showroom,"4724 Plummer Street, Pittsburgh",N/A,ChIJN8CvWVHyNIgRmVj9Qs4T6tg,40.4752213,-79.9582331
butler st,E Properties and Development,"4735 Butler Street, Pittsburgh",4,ChIJryiTW1HyNIgRTWiQ6IB_80U,40.4750773,-79.957996
butler st,Dragonfly Castle Toys,"4747 Butler Street, Pittsburgh",4.7,ChIJebuzGlTyNIgRMUfNPURJ6cs,40.4753826,-79.9578111
butler st,Busy Beaver,"4743 Plummer Street, Pittsburgh",4.3,ChIJie-n5FPyNIgRnfaxpmdcZiA,40.4753491,-79.9587572
butler st,Beer On Butler,"4811 Butler Street, Pittsburgh",4.3,ChIJM2IWrlbyNIgRvoDqnGcZYdQ,40.4764293,-79.95799509999999
butler st,Run Rabbit Gilding,"4719 Hatfield Street, Pittsburgh",5,ChIJjwNVuFfyNIgRazRKMXxT72o,40.4761613,-79.9596985
butler st,AlphaLab Gear,"113 47th Street, Pittsburgh",4.6,ChIJ1WvVF3TyNIgR6roczC0nlb4,40.47617519999999,-79.96088379999999
butler st,Phoenix Chinese SPA,"4309 Butler Street, Pittsburgh",3.8,ChIJF1DXi03yNIgRrbmobyLOXsg,40.47099860000001,-79.9602786
butler st,Quantum Theatre,"212 45th Street, Pittsburgh",4.8,ChIJD6Cbp3byNIgRMFIZvPNbDTs,40.4716528,-79.95918549999999
butler st,Butler Street Lofts,"212 45th Street, Pittsburgh",1,ChIJqf1xEFLyNIgRu6d5vSRGmXI,40.4717417,-79.95918209999999
butler st,Prismic Solutions,"4327 Butler Street, Pittsburgh",N/A,ChIJlRG7c1LyNIgRWzOH6wxPnFA,40.4715084,-79.9600646
butler st,Estelle S. Campbell - Boys & Girls Club of Western PA,"4600 Butler Street, Pittsburgh",4.6,ChIJ1dvMgFHyNIgRpIdt5U0t_Z4,40.47305230000001,-79.9580667
butler st,Evolve Beauty Collective,"4900 Hatfield Street, Pittsburgh",5,ChIJlQRCqE3yNIgRQbMavVBbIMI,40.4775191,-79.9574956
butler st,"Cromie Machine, LLC","4818 Harrison Street, Pittsburgh",N/A,ChIJfyHAFVTyNIgRu0cSdJ6xMgo,40.4774049,-79.958901
butler st,Crystal Bead Bazaar,"4521 Butler Street, Pittsburgh",4.6,ChIJGeqcIlLyNIgRguraaFE4P9Q,40.4728071,-79.9589563
butler st,Cornell William F,"145 44th Street, Pittsburgh",5,ChIJ73MZ9lLyNIgRnfxNd1l-Nlc,40.47284570000001,-79.9612628
butler st,D'Alessandro Funeral Home & Crematory Ltd.,"4522 Butler Street, Pittsburgh",4.4,ChIJ1YilJlLyNIgR7Qical_yIzw,40.4725189,-79.9586345
butler st,IW Abel Place,"4720 Hatfield Street, Pittsburgh",3.3,ChIJ30xc9FPyNIgRFjzUZhkU0QQ,40.4756842,-79.9593862
34th st,Restaurant Depot,"86 35th Street, Pittsburgh",4.1,ChIJJ1t-88nzNIgRGWsaCFokhiY,40.4641889,-79.9700945
34th st,Pittsburgh Tire,"3301 Smallman Street, Pittsburgh",4.4,ChIJBxjV3LXzNIgRqDDOEmbiDdc,40.46285090000001,-79.969315
34th st,Pennsylvania Department of Environmental Protection - Southwest Regional Office,"400 Waterfront Drive, Pittsburgh",3.2,ChIJ8zTv4LnzNIgRnzu54KHqkKA,40.4661882,-79.9757107
34th st,AAA Scrap Iron & Metal,"3311 Penn Avenue, Pittsburgh",4.5,ChIJ3WPn9LXzNIgRt7ENperatXU,40.4620653,-79.96852620000001
34th st,PeopleReady,"19 35th Street, Pittsburgh",3.6,ChIJ7fruEhz0NIgRm3CUHDkE7K8,40.4659911,-79.970692
34th st,Residential Resources Inc,"600 Waterfront Drive, Pittsburgh",5,ChIJ-ZSPsVbxNIgR8YlRXeSCLtE,40.46519839999999,-79.9763538
34th st,PeopleReady,"19 35th Street, Pittsburgh",3.1,ChIJ0-QK4C4uNIgRka4iiu5OzR4,40.4660929,-79.9705912
34th st,Pittsburgh Kitchenramma,"3340 Smallman Street, Pittsburgh",3.8,ChIJ5TTlwbXzNIgRVdAnHTB5nSk,40.4628416,-79.968384
34th st,Shorebridge Wealth Management,"600 Waterfront Drive, Pittsburgh",5,ChIJZ3LAzbnzNIgRDlTTtMYOT9o,40.4651985,-79.9763527
34th st,Aurora,"50 33rd Street, Pittsburgh",4.4,ChIJDxVAs7fzNIgR9tjdx8GWnUU,40.4642395,-79.97217599999999
34th st,Cardinal Health,"70 33rd Street, Pittsburgh",5,ChIJU1GzyrfzNIgRumpoMGEdtXA,40.4627538,-79.97206059999999
34th st,Pacific Pride Commercial Fueling,"3225 Smallman Street, Pittsburgh",4.3,ChIJ-_hqBLbzNIgRC9-VHL_nA-A,40.46226590000001,-79.9700751
34th st,Rieder Photography,"3339 Penn Avenue, Pittsburgh",N/A,ChIJh_d8kbXzNIgRo3iCHdFWkNM,40.4624293,-79.9677569
34th st,Engine House 25 Tasting Room,"3337 Penn Avenue, Pittsburgh",4.6,ChIJxbcwkrXzNIgRM2xatSqR7Ww,40.46251790000001,-79.96781709999999
34th st,GAMMA Sports,"200 Waterfront Drive, Pittsburgh",4.4,ChIJeb3HUrfzNIgRs008BEwnyqU,40.4672393,-79.9746322
34th st,33rd St. & Penn Ave,"3328 Penn Avenue, Pittsburgh",N/A,ChIJzYydjLXzNIgRXhnVDW3LMQY,40.4618364,-79.9681756
34th st,Summit Treatment Services,"3121 Smallman Street, Pittsburgh",3.6,ChIJrVvPyMnzNIgRYe0G8zm2Eys,40.46103470000001,-79.971847
34th st,Iron City Document Management,"3220 Penn Avenue, Pittsburgh",5,ChIJvVPnrkryNIgRDFRjpQMQRJw,40.4610485,-79.969326
34th st,Attorney General Env Crimes,"400 Waterfront Drive, Pittsburgh",N/A,ChIJ8zTv4LnzNIgR42Zewll5EWI,40.4659736,-79.9756268
34th st,Pittsburgh Trophy Co,"3225 Penn Avenue, Pittsburgh",4.8,ChIJRXdlA8rzNIgRss1zHRuWIZ4,40.46144,-79.969512
34th st,Timeless Floors & More,"Penn Avenue, Pittsburgh",N/A,ChIJ02PJHMrzNIgRI0ASIB0C96M,40.46076900000001,-79.96997499999999
34th st,Brass Building Lofts,"3179 Penn Avenue, Pittsburgh",4.5,ChIJ5Tw-88nzNIgR0CGMgxYY66Q,40.4607146,-79.9702133
34th st,The Clemente Museum,"3339 Penn Avenue, Pittsburgh",4.9,ChIJtRawkbXzNIgRH2J9JngnfXQ,40.46248429999999,-79.967686
34th st,31st Street Studios,"77 31st Street, Pittsburgh",3.9,ChIJg6QztcnzNIgRsSpBNabb9kk,40.46204830000001,-79.9733055
34th st,PPG Paint Store,"3131 Penn Avenue, Pittsburgh",4.6,ChIJbcxV68nzNIgRAx6aZLb9gWs,40.4606449,-79.9707162
34th st,Cranberry Plaza II LLC,"123 36th Street, Pittsburgh",N/A,ChIJHfmdg7PzNIgRBfCv4b-POOM,40.4671374,-79.9669826
34th st,Radiant Activewear,"3418 Penn Avenue, Pittsburgh",4.9,ChIJ-ZFKsGIxw4ARgzlx8MCMX3U,40.4628956,-79.9664883
34th st,Neumeyer Environmental Services Inc,"3527 Smallman Street, Pittsburgh",4.7,ChIJaU_jbrTzNIgR8Jlpw2nCa6o,40.4652411,-79.9672918
34th st,Desmone Architects,"3400 Butler Street, Pittsburgh",4.4,ChIJIYfOn7XzNIgRim_LBt3g8-o,40.46325179999999,-79.96654869999999
34th st,KMA & Associates Inc,"3501 Butler Street, Pittsburgh",5,ChIJf5WP_bTzNIgR0AOSM7VyS_c,40.464214,-79.966593
34th st,"Wilson-McGinley, Inc.","123 36th Street, Pittsburgh",4.1,ChIJmfBPdbTzNIgRxtDGFW3m7ck,40.4663916,-79.967383
34th st,FleetPride Service Center,"112 35th Street, Pittsburgh",4.7,ChIJOz84NrTzNIgRcvp0PgweyGA,40.4645868,-79.9685259
34th st,Allegheny Plywood Co,"3433 Smallman Street, Pittsburgh",4.5,ChIJhUzqSrTzNIgRtSJllJcibgc,40.4642779,-79.96807989999999
34th st,Nancy Mosser Casting,"3583 Butler Street, Pittsburgh",4.8,ChIJLcfG6rTzNIgRivSpALQ3Th0,40.4652356,-79.9656509
34th st,Strip District Drop-Off Center,"3001 Railroad Street, Pittsburgh",4.6,ChIJ33GZOcjzNIgRMayc3EgVQ40,40.46108890000001,-79.9733895
34th st,Millvale,Millvale,N/A,ChIJWWZBIhHzNIgRODpMSGtCnkM,40.480069,-79.9783862
34th st,Joule Design,"32 39th Street, Pittsburgh",N/A,ChIJMQyfbU3yNIgR-yzKRi5DD-k,40.4689371,-79.9656795
34th st,Eclipse Wholesale Inc,"26 39th Street, Pittsburgh",4,ChIJQVwDTbNiNIgRIO-0u0mUVkI,40.4709266,-79.9665266
34th st,USA Dust Guard,"24 39th Street, Pittsburgh",5,ChIJU0e447LzNIgRBdGCU-EshSk,40.47038420000001,-79.96670879999999
34th st,Scott Electric Lawrenceville,"24 39th Street, Pittsburgh",4.3,ChIJLTnvtUzyNIgRCdkX91QrI78,40.4703046,-79.9670452
34th st,Arsenal Elementary School,"215 39th Street, Pittsburgh",4.5,ChIJ11k5t0zyNIgRYJWd4k3S-W8,40.46713749999999,-79.96302949999999
34th st,Wesco Distribution Inc,"24 39th Street, Pittsburgh",3,ChIJwSKC8LLzNIgReC68qUxjGSk,40.4702525,-79.9667027
34th st,T's Upholstery Studio,"3611 Butler Street, Pittsburgh",4.2,ChIJ8_Q_vbTzNIgRr9aQH9cEWzk,40.46576789999999,-79.9652691
34th st,Meals On Wheels,"204 37th Street #103, Pittsburgh",5,ChIJiQYGr7TzNIgRaw3OZdrE8Hs,40.4658826,-79.96449559999999
34th st,Washington Crossing Bridge,Millvale,5,ChIJS6VA6a3zNIgRx6dKHnrostE,40.4728222,-79.96856509999999
35th st,Three Rivers Rowing Association,"300 Waterfront Drive, Pittsburgh",4.8,ChIJGc4o7rnzNIgR6oYT2MDw7iE,40.466788,-79.9762859
35th st,Securitas Security Services USA,"1601 Marys Avenue Ste 2G-7, Sharpsburg",3,ChIJFUUt8uz2NIgRKLBlFjIBguo,40.4651171,-79.9764265
35th st,"SC Management Operations, LLC.","600 Waterfront Drive, Pittsburgh",5,ChIJ-XE8jeTzNIgRob4--aj-BOY,40.4651442,-79.97637069999999
35th st,Indiana County Conservation District,"400 Waterfront Drive, Pittsburgh",N/A,ChIJVRMt3LnzNIgR9rzKEsv9FLg,40.4659736,-79.9756268
35th st,Salonika Imports,"3509 Smallman Street, Pittsburgh",4.8,ChIJyTyxT7TzNIgRnMNKpyk-XEM,40.4647526,-79.96782309999999
35th st,Black Cat Tattoos,"3439 Butler Street, Pittsburgh",4.8,ChIJ7_rgICTyNIgR5eJLbq-sxY4,40.4632848,-79.96696419999999
35th st,Asian Influences,"3513 Butler Street, Pittsburgh",5,ChIJf6q3-7TzNIgR_56c0JGITI4,40.4644302,-79.9662797
35th st,Pressure Chemical Co,"3419 Smallman Street, Pittsburgh",5,ChIJw58uyrXzNIgR8b11GBSWZJQ,40.463963,-79.96838199999999
35th st,Pittsburgh Foundry & Machine,"20 36th Street, Pittsburgh",3,ChIJGUTIVLHzNIgRZgWs5gVoNRg,40.4669845,-79.96982589999999
35th st,be Galleries,"3583 Butler Street, Pittsburgh",4.3,ChIJLcfG6rTzNIgRo2SawReSw8c,40.4652474,-79.9655775
35th st,Mattress Firm Warehouse,"55 38th Street, Pittsburgh",4.1,ChIJSTO7ALPzNIgR1TY91CZmg6Q,40.46852370000001,-79.96824289999999
35th st,Three Rivers Packaging Div. of The Cary Company,"20 39th Street, Pittsburgh",5,ChIJt2Iah1N9NIgR6ebHrvxEDRY,40.46987679999999,-79.9670805
35th st,Elisco's Creative Café,"3707 Butler Street, Pittsburgh",4.7,ChIJVxBcV7PzNIgRNFWWJFJ3Rdg,40.4665326,-79.96465839999999
35th st,Gingerly Press,"100 43rd Street #106, Pittsburgh",5,ChIJM_yzeftUxokRjZ5DLt-4npA,40.4729243,-79.96394649999999
36th st,Western Pennsylvania Conservancy,"800 Waterfront Drive, Pittsburgh",4.3,ChIJ5cvHr1bxNIgRrqa3GZkatDU,40.4646041,-79.9769309
36th st,Berger and Green,"800 Waterfront Drive, Pittsburgh",4.4,ChIJtdG-T7jzNIgRmZQbKm1hrZs,40.4643215,-79.9770685
36th st,"WTW Architects, an AE Works company","800 Waterfront Drive Suite A, Pittsburgh",4.9,ChIJLZUEZfzzNIgR6ND-_TyC5DQ,40.4644287,-79.9769465
36th st,Cynthia C. Berger,"800 Waterfront Drive, Pittsburgh",5,ChIJlWKURbjzNIgRZSPP-1F2WsM,40.4643218,-79.97706819999999
36th st,"Avnet, Inc.","800 Waterfront Drive, Pittsburgh",N/A,ChIJLwDiN7jzNIgR8BUEsuApCpE,40.4643218,-79.97706819999999
36th st,Acutronic USA Inc,"700 Waterfront Drive #200, Pittsburgh",1,ChIJ0cZiKNfsNIgRVbRJRg-VVUU,40.4651684,-79.9772046
36th st,Cystic Fibrosis Foundation - Western Pennsylvania Chapter,"600 Waterfront Drive #223, Pittsburgh",5,ChIJ-XE8jeTzNIgRYmyZYz9Dhh0,40.46519839999999,-79.9763538
36th st,Oak's Auto/Truck Service LLC,"19 35th Street, Pittsburgh",3.4,ChIJAVlEGJ7zNIgRsgeTUVp4YXk,40.4661674,-79.9709243
36th st,Sugar and wax Studio,"19 35th Street, Pittsburgh",N/A,ChIJzxW08ezzNIgRfLcVpIshQas,40.4660929,-79.9705912
36th st,Warehouse,"19 35th Street, Pittsburgh",5,ChIJI_BVdOjzNIgRA_CeUzzuwXY,40.4660929,-79.9705912
36th st,Perrotte Wood Finishing Co,"19 35th Street, Pittsburgh",5,ChIJY8y_vbbzNIgR5D_w8kNLEEo,40.4663775,-79.97024669999999
36th st,33rd Street Railroad Bridge,Pittsburgh,N/A,ChIJUzDEBrfzNIgReLtXUr0Xvz0,40.4648553,-79.9728308
36th st,LibertyX Bitcoin ATM,"86 35th Street, Pittsburgh",N/A,ChIJ4Qz2p8DzNIgRR_HId-uBxP8,40.46428969999999,-79.9704762
36th st,A. R. Chambers Supply,"111 35th Street, Pittsburgh",4.9,ChIJobz8N7TzNIgRK8U-b41LwOc,40.46508199999999,-79.96827019999999
36th st,FleetPride,"112 35th Street, Pittsburgh",1,ChIJZaZtZvTzNIgRDnzQBfw4Wj8,40.46455539999999,-79.9685212
36th st,Pink lot 3,"35th Street, Pittsburgh",N/A,ChIJN2SReQDzNIgRKcic1DXswQA,40.46473,-79.96815730000002
36th st,Strip Self Storage,"116 34th Street, Pittsburgh",4.3,ChIJ9-5o2bXzNIgRy3pEJuw9mFs,40.4632423,-79.9694943
36th st,Pittsburgh Paddlefish Dragon Boat Club,"90 River Front Drive, Millvale",5,ChIJ1eTwY7DzNIgRKlHSdbdUbJQ,40.469845,-79.9746558
36th st,Bernard Dog Run,"Hazelwood Trail, Pittsburgh",4.5,ChIJk4PtNLLzNIgRQOUikTWBMLg,40.4697723,-79.9682768
36th st,Formlogic,"55 38th Street, Pittsburgh",5,ChIJzTLcrsvzNIgRTNd2eEeAhh0,40.46904120000001,-79.9679726
36th st,Spectra Contract Flooring,"26 39th Street, Pittsburgh",N/A,ChIJNR6I4bLzNIgRG05aCFrxj3U,40.47029,-79.96678899999999
36th st,St Fidelis Development,"220 37th Street, Pittsburgh",N/A,ChIJWzZ0IbPzNIgRj5XXQMIeoG0,40.4687649,-79.96522019999999
36th st,Lawrenceville Three Rivers Heritage Trail,"Lawrenceville Trail, Pittsburgh",4.6,ChIJNUOwfZHzNIgRZ7VbbnVrX-g,40.47136130000001,-79.967191
36th st,Bill Ballon Automotive Independent BMW Automobile Specialists,"164 39th Street, Pittsburgh",4.1,ChIJ8XWOJLPzNIgRUNvRF44Bk6c,40.4684204,-79.96502129999999
36th st,Oyster Creative Co.,"3614 Smallman Street, Pittsburgh",5,ChIJC8Ag39fzNIgRg5McknOO5lk,40.4664289,-79.9666142
36th st,LAWRENCEVILLE BOAT LAUNCH,"0048H00200000000, Pittsburgh",N/A,ChIJxVfDHY7zNIgRu16aPB5zRks,40.4716101,-79.9672358
36th st,Herrs Island North Park Lookout Point,"100 Waterfront Drive, Pittsburgh",5,ChIJu8TfzkrzNIgRiPxRcyvwqBg,40.4700515,-79.9725217
36th st,Wendy's,"4001 Butler Street, Pittsburgh",3,ChIJoacKHk3yNIgRuTyIvX6tIHY,40.469128,-79.96232359999999
36th st,Central Lawrenceville Neighborway,"401 Willow Street, Pittsburgh",N/A,ChIJXcsmjCHzNIgR80PZD1hMMxE,40.470866,-79.9648959
36th st,Giant Eagle,Pittsburgh,N/A,ChIJrSfyDgDzNIgRAnP5sa4VMQA,40.4714933,-79.9652919
36th st,Children's Hospital of Pittsburgh Foundation,"105 40th Street, Pittsburgh",5,ChIJERM1AUPyNIgRKm0kesDgP7g,40.4713134,-79.9650802
36th st,Steel City Speed & Custom,"100 40th Street, Pittsburgh",4.6,ChIJUeg7u7LzNIgRhckGWZEP3Qw,40.4708268,-79.9647737
36th st,Helomics Corporation,"91 43rd Street #130, Pittsburgh",4.2,ChIJd4-V93PxNIgRWUDBXN_tvZU,40.473484,-79.96365349999999
36th st,43rd Street Concrete,"1 43rd Street, Pittsburgh",4.5,ChIJpf0dxazzNIgR6NRXkdLJ81g,40.4751821,-79.9645814
36th st,PNC Bank,"4101 Butler Street, Pittsburgh",3.5,ChIJSRISCk3yNIgRd14Ba2yucxA,40.46979,-79.96146
36th st,Bike Pittsburgh,"188 43rd Street #1, Pittsburgh",4.1,ChIJLXqik0XxNIgRrW_V_qteKvQ,40.4708958,-79.9609175
37th st,Topographic & Geologic Survey,"500 Waterfront Drive, Pittsburgh",N/A,ChIJ-e-s6bnzNIgRYpKj9SWVW_4,40.46618839999999,-79.97638429999999
37th st,Herrs Island North Park,Pittsburgh,4.7,ChIJGR0W8bDzNIgR_6CL-u6Dld0,40.4689668,-79.97364809999999
37th st,Pittsburgh Hearts of Steel,"300 Waterfront Drive, Pittsburgh",N/A,ChIJkUEQbYvzNIgRaPMtPx95Nd4,40.4668815,-79.97622779999999
37th st,Retirement Field Guide,"600 Waterfront Drive, Pittsburgh",N/A,ChIJp8wRzLnzNIgRWK0cbVPDAwQ,40.4651985,-79.9763527
37th st,Nulf Management Services - Pittsburgh Property Management,"600 Waterfront Drive Suite 200, Pittsburgh",3,ChIJZ2bLzZLzNIgRI5yD-4SkcKo,40.46519839999999,-79.9763538
37th st,Nulf Real Estate,"600 Waterfront Drive Suite 200, Pittsburgh",4.4,ChIJWe8p-_5bNIgRhYbFMHWDbhs,40.46519839999999,-79.9763538
37th st,Three Rivers Water Trail Launch- Millvale Boat Launch,Millvale,4,ChIJJ19Ic8bzNIgR_DdEyJowmjs,40.469387,-79.9746488
37th st,Pittsburgh Magazine,"600 Waterfront Drive STE 100, Pittsburgh",4.3,ChIJUf3DpyPyNIgRieEaOqbaR38,40.4651462,-79.9764072
37th st,Three Rivers Rowing Association (TRRA),"90 River Front Drive, Millvale",4.7,ChIJt5F0a67zNIgRgoNfTfPLCCA,40.4704749,-79.9738162
37th st,Union Bridge Capital,"800 Waterfront Drive, Pittsburgh",N/A,ChIJeewazGIdNYgRmNzdMAm72zg,40.4644287,-79.9769465
37th st,Zenith Supply Co,"50 32nd Street, Pittsburgh",2.3,ChIJYZvzJrbzNIgRVexAyqMES0I,40.4623295,-79.9715849
37th st,BearCom,"3229 Spruce Way, Pittsburgh",4.3,ChIJ3W2bIj3zNIgReXUKaiTVJR4,40.4624513,-79.97060700000002
37th st,Perlora Warehouse,"3524 Charlotte Street, Pittsburgh",N/A,ChIJdSkN9LTzNIgRhu1S3tz49do,40.4650863,-79.9665117
37th st,Washington's Landing Public Tennis Courts,Pittsburgh,N/A,ChIJ7ayVlbDzNIgRaKnouxL7vq4,40.4686111,-79.9740851
37th st,Millvale Riverfront Park,"70 River Front Drive, Pittsburgh",4.5,ChIJPR3OP67zNIgR-NjpvQp_HaA,40.4728491,-79.9712009
37th st,Techmill 41,"105 40th Street, Pittsburgh",3.5,ChIJ5RbhtjDzNIgRLZioFwQ-Cy8,40.4715778,-79.9649063
37th st,Whitey's Mobile Wash,"135 Almond Way, Pittsburgh",4.8,ChIJRX8FBPfyNIgRQQfggMyUVXU,40.4708755,-79.96409489999999
37th st,COLOMBINO Coffee,"3817 Butler Street, Pittsburgh",4.8,ChIJ_bL2sYzzNIgREeO7YMNRbsw,40.46756699999999,-79.9642672
37th st,El Rincon Oaxaqueño,"3817 Butler Street, Pittsburgh",4.6,ChIJZ5ZEkM7zNIgRbD1UL6cJ2m0,40.46756699999999,-79.9642672
37th st,COLOMBINO Coffee/Food Truck,"3817 Butler Street, Pittsburgh",4.6,ChIJJdPcGIrzNIgR4he_3_nQQxM,40.4675693,-79.9642338
37th st,Bay 41,"115 41st Street, Pittsburgh",3.5,ChIJGwCKqlLyNIgRfVOkxrkUIBY,40.47160409999999,-79.9642964
37th st,Grapperia,"3801 Butler Street, Pittsburgh",4.7,ChIJgQf9UbPzNIgRcuZi-LCagAA,40.4670557,-79.96442449999999
37th st,Millie's Homemade Truck - Tiny Fleet,"3803 Butler Street, Pittsburgh",5,ChIJPeolNfjzNIgRHWwtAqrrYnA,40.467112,-79.96436159999999
37th st,"Marybrooke Umhau Burval, MD","3937 Butler Street, Pittsburgh",N/A,ChIJO_73OBbzNIgRZ3OnhjFHx3Y,40.4689045,-79.9634657
37th st,"Laila Maher Younes, MD","3937 Butler Street, Pittsburgh",N/A,ChIJNen9py3zNIgRuikS8oRmS4A,40.4689045,-79.9634657
37th st,Connor Mckittrick,"3937 Butler Street, Pittsburgh",N/A,ChIJVVUlKE3yNIgRz8JGTSUgU7A,40.4689045,-79.9634657
37th st,Lisa Schlar,"3937 Butler Street, Pittsburgh",N/A,ChIJVVUlKE3yNIgRKzbWFRIBb7U,40.4689045,-79.9634657
37th st,Andrew Leuenberger,"3937 Butler Street, Pittsburgh",N/A,ChIJVVUlKE3yNIgRObKea-Citi4,40.4689045,-79.9634657
37th st,Matthew Harbaugh,"3937 Butler Street, Pittsburgh",N/A,ChIJVVUlKE3yNIgRiNbfHLKsHlY,40.4689045,-79.9634657
37th st,Renaissance & Baroque,"100 43rd Street, Pittsburgh",N/A,ChIJ03YddW7yNIgRhFTGUs8xFQ0,40.4728608,-79.9638889
37th st,The Foundry at 41st,"4107 Willow Street, Pittsburgh",4.4,ChIJgbYkVa3zNIgR33A3MPCseG4,40.472162,-79.9643936
37th st,Lawrenceville Farmers Market,"115 41st Street, Pittsburgh",4.8,ChIJaSEqiEzyNIgROT0ziaYJEyU,40.4714793,-79.9638593
37th st,Rainbow Row,"119 41st Street, Pittsburgh",4.3,ChIJFQh0j7TzNIgRve9Smu3rc34,40.471287,-79.9638069
37th st,Carnegie Mellon Robotics Academy,"10 40th Street, Pittsburgh",N/A,ChIJW45b26bzNIgR4ct9TYvJPmc,40.47317590000001,-79.96500619999999
37th st,Iron City Rinzai Pittsburgh Zen Practice Group,"137 41st Street, Pittsburgh",N/A,ChIJB8TY2U3vNIgR5MrkX9FSv_U,40.4710408,-79.96323629999999
37th st,Pittsburgh Ultimate,"100 43rd Street, Pittsburgh",5,ChIJ5bNuyVLyNIgRGcq9Dckq23c,40.4726675,-79.9638216
37th st,Chez Lapin,"100 43rd Street #105, Pittsburgh",5,ChIJcR1JaGvzNIgRV_iMCv08CAY,40.4725733,-79.9637281
37th st,Frannies,"120 Banner Way, Pittsburgh",N/A,ChIJhYYuX8fzNIgRVhv0lAVbcHo,40.471594,-79.96325809999999
37th st,"SKIBBA Illustration, LLC","100 43rd Street #211, Pittsburgh",N/A,ChIJ5SDBc1LyNIgRiHUbiyZsiV4,40.47292399999999,-79.96394699999999
37th st,Asia Margo Photography,"100 43rd Street, Pittsburgh",N/A,ChIJ50KszQztNIgRlsTB4CqeBa0,40.4729243,-79.96394649999999
37th st,Stone + Sparrow Studio,"100 43rd Street Suite 205, Pittsburgh",5,ChIJ7ygcK5ztNIgRa2fBDfPLrfc,40.4729243,-79.96394649999999
37th st,Keith & Co.,"100 43rd Street #211, Pittsburgh",N/A,ChIJcW4tZFXzNIgRRufl5eIbao4,40.4728989,-79.9639163
37th st,KLoRebel Art Co.,"100 43rd Street #108, Pittsburgh",N/A,ChIJt33h2_vzNIgRK0tb3a-fsU8,40.4728608,-79.9638889
37th st,Kelly Lane,"100 43rd Street #108, Pittsburgh",N/A,ChIJd3cEy1LyNIgRx6IZukmxUh4,40.4728608,-79.9638889
37th st,Rainstick Dreams,"100 43rd Street #112, Pittsburgh",5,ChIJb0RsUDzzNIgRt5jGSLmHzgE,40.4728738,-79.9638856
38th st,Look Out Street Parklet,Pittsburgh,3.8,ChIJA5qjRLrzNIgR2Rih9fdDh5o,40.46934299999999,-79.9770565
38th st,河边走路（Novo）,"1000 Waterfront Drive, Pittsburgh",N/A,ChIJydhLZQDzNIgRHlHMXIrbDf8,40.46388460000001,-79.976917
38th st,Millvalle Riverfront Park,"54 River Front Drive, Millvale",4.9,ChIJz245Y0jzNIgRjXOiOt2-F3g,40.4745475,-79.9694219
38th st,Tres Rios Sports,"50 River Front Drive, Millvale",5,ChIJkxK37jsyy4kRLMRaWjr_fbQ,40.4745571,-79.9697266
38th st,Elan Mizrahi Photography,"100 43rd Street, Pittsburgh",5,ChIJnSJcbmzzNIgR829LrJNA6PE,40.4729254,-79.963728
38th st,Ice House Studios,"100 43rd Street, Pittsburgh",4.8,ChIJd3cEy1LyNIgRPzOm-SitCVc,40.472912,-79.9636963
38th st,The Irving and Aaronel deRoy Gruber Foundation,"The Ice House Studios, 100 43rd Street Unit 114, Pittsburgh",5,ChIJvSXDEwjzNIgRj2egsE0edC4,40.4729117,-79.9636664
38th st,"Depiction, LLC","100 43rd Street #211, Pittsburgh",N/A,ChIJlbijv6DzNIgRuQ9YvvC0fJY,40.4728387,-79.9635857
38th st,Icehouse Parking,"Willow Street, Pittsburgh",4,ChIJtSPb7mjzNIgR2b4mIq5OWd4,40.4725322,-79.9634835
38th st,SeqCenter,"91 43rd Street Suite 250, Pittsburgh",N/A,ChIJrZ3nO7vzNIgRFnRjeDCCkwA,40.473351,-79.963422
38th st,ESTAT Actuation,"91 43rd Street, Pittsburgh",N/A,ChIJwxtqExvzNIgR2afluwOuJYY,40.473351,-79.963422
39th st,Troy Hill Loop + Lowrie,United States,N/A,ChIJr91CsbvzNIgRU44ur6q0DvI,40.469269,-79.97863199999999
39th st,Pitt Penn Industrial Supply,"2462 Pittview Avenue, Pittsburgh",N/A,ChIJkSTg-a_zNIgRwbGKHIu6Gx8,40.4730845,-79.9750246
39th st,Millvale Marina,"101 Bridge Street, Pittsburgh",4.5,ChIJQ07VPKzzNIgRBPv1eXKWsQo,40.47595759999999,-79.9683909
39th st,Maxo Vanka Murals,"24 Maryland Avenue, Pittsburgh",4.8,ChIJs81TVKnzNIgRPewIr2yJgok,40.4770694,-79.969625
39th st,Three Rivers Boat Rental,"101A Bridge Street, Millvale",4.4,ChIJ9TRXUVzzNIgRoC6daXW6keY,40.4759885,-79.9685157
39th st,Agility Robotics,"91 43rd Street Suite 220, Pittsburgh",5,ChIJ3xiKDLbzNIgRLpWxW-a5Fqw,40.473351,-79.963422
40th st,Pgh 360,"2134 Lowrie Street, Pittsburgh",5,ChIJN5mKqrvzNIgR8K2k6cC5C3k,40.47007800000001,-79.97819109999999
40th st,Lowrie St at Heckleman St,United States,N/A,ChIJ7RJOwbvzNIgRHBQDGWKAzfs,40.468698,-79.9790915
40th st,Lowrie St + Heckleman,United States,N/A,ChIJbc4LxLvzNIgRU_FQhujZEjA,40.468706,-79.97907099999999
40th st,Lowrie St + Heckleman,United States,N/A,ChIJNRgnwbvzNIgRrVJ-d0W8PnA,40.468788,-79.97908
40th st,Linnea Marie Photography,"2131 Straubs Lane, Pittsburgh",5,ChIJHeFRw3NjM4gRHVzM9qungLQ,40.470324,-79.97867389999999
40th st,Voegtly Cemetery,"1955 Lowrie Street, Pittsburgh",3.5,ChIJyTfIXLnzNIgRVwicuyStU0Y,40.4671609,-79.9796731
40th st,Earthview Studios,"605 Pittview Avenue, Pittsburgh",5,ChIJ-4Dzi6_zNIgRZy4RRW1g_II,40.4738113,-79.9746771
40th st,Pittsburgh Snow Removal,"211 Stanton Avenue, Pittsburgh",4.9,ChIJIYL2SKnzNIgROgt-FM7T8O4,40.4776209,-79.97082329999999
40th st,West Penn Laco - NORTH - Millvale,"331 East Ohio Street, Pittsburgh",5,ChIJuxb_V6nzNIgRabziSR7Bchw,40.4775493,-79.9697807
40th st,Distinctly U Kitchen & Bath Design Center & Showroom,"419 East Ohio Street, Millvale",3.6,ChIJnwnTwqvzNIgRsuejaQ9Ek4M,40.4782825,-79.96908069999999
40th st,St. Nicholas Church,"24 Maryland Avenue, Pittsburgh",4.9,ChIJP5flLxvzNIgRavjNmpHkIUg,40.4770936,-79.96970999999999
40th st,Thoro.ai,"210 48th Street, Pittsburgh",5,ChIJewr6BLbzNIgRfkmLZdEgkkk,40.4754531,-79.9636352
41st st,ClearMind Consulting,"1800 Niggel Street, Pittsburgh",N/A,ChIJK4HzACryNIgR3WoromWnUxY,40.4678121,-79.9800497
41st st,The LilyPad Apartments,"2008 Lowrie Street, Pittsburgh",N/A,ChIJb1zUWIfzNIgRwhbNrtpM7ME,40.46794610000001,-79.97982019999999
41st st,Lowrie Studio,"2008 Lowrie Street, Pittsburgh",N/A,ChIJuUzEaN_zNIgRXXDQ12TDcrI,40.4679502,-79.9798256
41st st,Millvale Building Company,"2037 Straubs Lane, Pittsburgh",5,ChIJ51ebqwrzNIgRnX77gGiahzw,40.4689696,-79.9798858
41st st,Lowrie St + Niggel,United States,N/A,ChIJMxo-WbnzNIgR5HzfJ98baMg,40.467695,-79.979873
41st st,Lowrie St + Niggel,United States,4,ChIJs-JkWLnzNIgRKhFbAQJWiBk,40.46771,-79.979952
41st st,Western Pennsylvania Firefighters Memorial,"1955 Lowrie Street #1917, Pittsburgh",4.5,ChIJ4xHAWrnzNIgRW5kcv4Hj2O8,40.4672354,-79.98002509999999
41st st,Darbea's Tavern,"1962 Lowrie Street, Pittsburgh",4.5,ChIJvRAvV7nzNIgRuU7lKBVjlsE,40.4674682,-79.98012539999999
41st st,ATM,"1962 Lowrie Street, Pittsburgh",N/A,ChIJ-1tVV7nzNIgRa46k4P_D6N4,40.46750000000001,-79.9801664
41st st,Subway,"124 Grant Avenue, Millvale",4.2,ChIJCfyoZ6nzNIgRL5QlxkTYtbE,40.4785009,-79.97008439999999
41st st,GPSA INC,"112 Lincoln Avenue, Pittsburgh",4.5,ChIJ-xRtxxbzNIgRvO-5ETxUn98,40.478895,-79.96869199999999
41st st,UA Local 542 Sprinklerfitters,"227 Stanton Avenue, Pittsburgh",5,ChIJIw1TN6nzNIgR84Wyie8wOdw,40.477802,-79.9713124
41st st,Trace Services,"230 Stanton Avenue, Pittsburgh",2.6,ChIJQwRMOanzNIgRvtYEfZNIiMY,40.47797919999999,-79.9712816
41st st,MoneyGram,"129 Lincoln Avenue, Swissvale",4,ChIJ504DZKnzNIgRx4gDuBu9c0A,40.4785906,-79.97001910000002
41st st,ACE Cash Express,"129 Lincoln Avenue, Pittsburgh",4.9,ChIJyeG2Y6nzNIgR5VjRXYOW9K4,40.47867420000001,-79.9699392
41st st,Grant Bar Inc,"114 Grant Avenue, Pittsburgh",4.5,ChIJ75smXqnzNIgR1Vqf98Bd5vQ,40.4782667,-79.9697429
41st st,"Daniels Electric Service, LLC","329 East Ohio Street, Pittsburgh",4.1,ChIJ2bM3_avzNIgREIiBT-nRV9Q,40.4775454,-79.9694912
41st st,Propane Grills & Campers,United States,N/A,ChIJTdPG5qvzNIgRx3k3ABPW9BA,40.4776415,-79.9694391
41st st,East Ohio St at Grant Ave,United States,N/A,ChIJ868r4avzNIgRZmaD19OrfxQ,40.47802599999999,-79.9692915
41st st,Christman Chemical Co. Inc.,"One Sheridan Street, Millvale",N/A,ChIJ22PRK6nzNIgR3BmittpFzik,40.4773719,-79.9718496
41st st,Contractor Plumbing Supply,"419 East Ohio Street Lot Side, Millvale",5,ChIJ5-y5TgnzNIgRJbE7Rge4WYg,40.47820410000001,-79.969199
41st st,East Ohio St + Grant,United States,N/A,ChIJ07RG3avzNIgRmDZgzJzUBG0,40.478296,-79.96892000000001
41st st,Strange Roots Experimental Ales,"501 East Ohio Street, Millvale",4.5,ChIJZ5fFx6vzNIgR4IEc-0-hA7Q,40.47877500000001,-79.96818100000002
42nd st,"Leone Electrical Contractors, LLC","1 Sheridan Street, Millvale",3.5,ChIJV3uvGAXzNIgRKiPBE0-oJxg,40.47745049999999,-79.97203119999999
42nd st,Concannon Plumbing,"227 Maryland Avenue, Pittsburgh",5,ChIJk-E3La_zNIgRRC1Yd-YxlIU,40.47730869999999,-79.9730096
42nd st,Vecenies Distributing,"317 Stanton Avenue, Pittsburgh",4.3,ChIJw8gq6e3zNIgRggNP50HJ0Tk,40.477829,-79.97212560000001
42nd st,Graph-X Printing,"323 Stanton Avenue, Millvale",5,ChIJeyYM2KjzNIgRY5r79Vm8oXA,40.4778898,-79.97241799999999
42nd st,Tri State Home Care Inc.,"149 Grant Avenue, Millvale",3.5,ChIJsbI3FanzNIgRLYkS4d4yUb8,40.4785979,-79.9709432
42nd st,"Tricia R Sorg, Esquire","201 Grant Avenue Floor 1, Millvale",3.8,ChIJ67llFKnzNIgRiezwasCKXhw,40.4786274,-79.97123669999999
42nd st,Millvale Community Library,"213 Grant Avenue, Millvale",4.7,ChIJ7ZfwEKnzNIgRMhgYM2mQZ9M,40.4788536,-79.9716107
42nd st,True Merchant,"230 Stanton Avenue, Pittsburgh",4.9,ChIJQwRMOanzNIgRMT3JgpWr_ok,40.47797919999999,-79.9712816
42nd st,"Sarah B. Larkin, MD","111 Sheridan Street, Pittsburgh",5,ChIJwZi8cqnzNIgR9BG-SfPLLJo,40.47900120000001,-79.9710132
42nd st,"Dr. Robert L. Carrell, MD","111 Sheridan Street, Millvale",3.7,ChIJwZi8cqnzNIgRhtjtoEuFxfk,40.4790017,-79.97100089999999
42nd st,"Henry A. Bakkila, MD","111 Sheridan Street, Pittsburgh",N/A,ChIJwZi8cqnzNIgRAbowlbc_foo,40.47900120000001,-79.9710132
42nd st,Fine Wine & Good Spirits #223,"129 Lincoln Avenue, Millvale",4.3,ChIJfTVaNkHzNIgRAv-5EhN9_2g,40.478655,-79.9698852
42nd st,Pittsburgh Sandwich Society Food Truck,"501E East Ohio Street, Pittsburgh",4.6,ChIJKVh9ZJPyNIgRukGVEuDBCkM,40.4787536,-79.9681918
42nd st,Family Dollar,"123 Lincoln Avenue, Millvale",3.6,ChIJL0J32qvzNIgRdSy9vIY08GY,40.47889670000001,-79.9697668
42nd st,Harold's Haunt,"142 Grant Avenue, Millvale",4.8,ChIJe2v4zy7zNIgRWiVQxxOcKPs,40.478621,-79.9706763
42nd st,Certified Pittsburgh Translation,"323 Stanton Avenue, Pittsburgh",5,ChIJn1IcrPDzNIgRMQZnTKfh77c,40.4778836,-79.9723937
42nd st,Maude's Paperwing Gallery,"142 Grant Avenue FL 2, Millvale",4.9,ChIJ3fYPbXXtNIgR2DMgv-az8dM,40.4786674,-79.9706676
43rd st,Saint Nicholas Cemetery,Pittsburgh,N/A,ChIJaQrWU6TzNIgRAOsXmR9bHDc,40.4748924,-79.9783674
43rd st,Best Business Forms Co,"323 Stanton Avenue, Millvale",5,ChIJeyYM2KjzNIgRfEwRysGSejg,40.4779108,-79.97246799999999
43rd st,Medicap Pharmacy,"225 Grant Avenue, Millvale",4.7,ChIJTWazBKnzNIgRio_BdlHNrH8,40.479057,-79.9720861
43rd st,United States Postal Service,"205 Lincoln Avenue, Millvale",2.4,ChIJ073rnanzNIgR20njvRuMhDk,40.4794674,-79.9707229
43rd st,Wild At Heart Body Arts,"305 Grant Avenue #2611, Pittsburgh",4.9,ChIJUXB8AqnzNIgRcOP8GKd5vvQ,40.47936079999999,-79.97230449999999
43rd st,Volk Christine L,"111 Sheridan Street, Pittsburgh",5,ChIJwZi8cqnzNIgROG9xomwqAYY,40.4790017,-79.97100089999999
43rd st,Abeille Voyante Tea Co,"211 Grant Avenue, Millvale",5,ChIJjZdHFefzNIgR-EWidM38HBQ,40.4788844,-79.9715028
43rd st,Pittsburgh Window & Door Co,"Stock House, 100 Evergreen Avenue, Pittsburgh",4.5,ChIJC-azravzNIgRcIQxz-SI2fo,40.4792169,-79.9673002
43rd st,"Amy J. DiPlacido, MD","111 Sheridan Street, Pittsburgh",5,ChIJwZi8cqnzNIgRP1L2WzrKNzQ,40.4790017,-79.97100089999999
43rd st,Goosehead Insurance - Scott Davis,"146 Grant Avenue, Pittsburgh",5,ChIJgwNp6BnxNIgRXAmjC_WiusY,40.47877159999999,-79.97076349999999
43rd st,Cousins Lounge,"203 Grant Avenue, Millvale",4.6,ChIJc_WdFqnzNIgR1OwpYf3aX-0,40.47874059999999,-79.97123710000001
43rd st,Scott's Barber Shop,"205 Grant Avenue, Millvale",4.9,ChIJyWWVFqnzNIgRo7lMSaiNEBg,40.47873,-79.97137599999999
43rd st,Renaissance Family Practice-UPMC,"111 Sheridan Street, Pittsburgh",2.9,ChIJwZi8cqnzNIgRroois8BZYYI,40.4790017,-79.97100089999999
43rd st,"Jonathan Michael Weiss, MD","111 Sheridan Street, Pittsburgh",N/A,ChIJCcl9hK_zNIgRmIRw3WURI4c,40.4790076,-79.97099299999999
43rd st,"Naushin A. Udyawar, MD","111 Sheridan Street, Pittsburgh",N/A,ChIJ21Ej5AbzNIgRmz5IY6Lj7cc,40.4790076,-79.97099299999999
44th st,Dollar Bank,"2000 Mount Troy Road, Pittsburgh",5,ChIJi9FZb7zzNIgR_hYemIl_H-4,40.46968839999999,-79.98182640000002
44th st,Stewart Wellness Center,"2022 Mount Troy Road, Pittsburgh",4.4,ChIJwbCjZrzzNIgRZtJAPwR2RlI,40.47011739999999,-79.9818842
44th st,Veterans of Foreign Wars,"1902 Sundeman Street, Pittsburgh",4.8,ChIJh7rLArzzNIgR0xJO5iuQZNI,40.4682187,-79.981444
44th st,Grist House Craft Brewery,"10 East Sherman Street, Pittsburgh",4.8,ChIJxVy9G6nzNIgRLFFQap_SmqM,40.4787139,-79.9722824
44th st,Millvale Free Fridge and Pantry,"213 Grant Avenue, Millvale",N/A,ChIJJ93sG0bzNIgRR7f5ceQ-9vI,40.47885159999999,-79.97161609999999
44th st,Millvale Tool Library,"213 Grant Avenue, Millvale",4.4,ChIJn6k3cDnzNIgRpaGRkJYrpHQ,40.47885159999999,-79.97161609999999
44th st,Eat Local Shop Small,"215 Grant Avenue, Millvale",N/A,ChIJe31vNlSPyWcRZrYShwCegx0,40.4789463,-79.97159169999999
44th st,Millvale United Methodist Church,"223 Grant Avenue, Millvale",N/A,ChIJ_2EhG6nzNIgRp5O3CRfTw_E,40.4789903,-79.9719219
44th st,Hometown Tattoo,"223 Grant Avenue, Millvale",4.9,ChIJUaMInGrzNIgRhdWpVM2g-pE,40.479004,-79.97200939999999
44th st,The Gardens of Millvale,"22 Butler Street, Millvale",4.7,ChIJRVdq9KjzNIgRz4pLADDFPMk,40.4790893,-79.9732111
44th st,FracTracker Alliance,"112 East Sherman Street, Pittsburgh",N/A,ChIJk-fcL0TyNIgRBkmOkwjJyr0,40.4797979,-79.9713549
44th st,New Sun Rising,"112 East Sherman Street, Millvale",4.7,ChIJHx8qoanzNIgRDzwnYIvY5SU,40.4797979,-79.9713549
44th st,Millvale Food + Energy Hub,"112 East Sherman Street, Millvale",4.8,ChIJHx8qoanzNIgRJc4_A4E36GM,40.4799452,-79.9713307
44th st,Safety Guard Steel Fabricating Shop,"220 Lincoln Avenue, Millvale",N/A,ChIJ5_eR2qvzNIgR805d9Qb3c68,40.4801261,-79.9709302
44th st,Reinsfelder Inc,"156 Evergreen Avenue, Pittsburgh",N/A,ChIJnTnuHgXzNIgRvp2mD5uehcM,40.4801574,-79.9690402
45th st,Kazew Israel DDS,"2109 Mount Troy Road, Pittsburgh",4,ChIJPQ4gXLzzNIgRKoRHf3NH-7g,40.4702665,-79.9823122
45th st,St Paul Cemetery,"2103 Highland Avenue, Pittsburgh",5,ChIJk0TXpLzzNIgRGoLfv_RGCkA,40.472154,-79.981473
45th st,MT Troy Rd + Beckert,United States,N/A,ChIJoUT4ZrzzNIgRneBgjFLuizE,40.470198,-79.982134
45th st,MT Troy Rd at Beckert St,United States,N/A,ChIJ1dJnZ7zzNIgRzgf1jJQY8f8,40.47009449999999,-79.982171
45th st,MT Troy Rd + Beckert,United States,N/A,ChIJCUDaXbzzNIgRQCBGOUg4-GE,40.47025,-79.982254
45th st,Israel Null Kazew,"2109 Mount Troy Road, Pittsburgh",N/A,ChIJ__98XrzzNIgRZGuTPgHg44E,40.4702306,-79.98237639999999
45th st,Northside Dental Mt Troy Office,"2109 Mount Troy Road, Pittsburgh",2.7,ChIJScYdPhfzNIgRENr50BgrN-g,40.4702306,-79.98237639999999
45th st,MT Troy Rd + Highland,United States,N/A,ChIJSz2T9LzzNIgRTy65egIHfwU,40.470801,-79.982376
45th st,Mr. Smalls Theatre,"400 Lincoln Avenue, Millvale",4.7,ChIJDZ5sNKjzNIgR5QIcsD-M-e4,40.48081850000001,-79.97224949999999
45th st,Meals On Wheels,"122 Butler Street, Millvale",N/A,ChIJKTvsUqjzNIgRbeOAasGlwXk,40.4802943,-79.9724359
45th st,A519 Chocolate,"2 Sedgwick Street, Millvale",5,ChIJtcJmhKjzNIgRzq9V8lrSGHY,40.4793104,-79.97457370000001
45th st,TABS Asphalt & Concrete Inc.,"10 Sedgwick Street, Pittsburgh",N/A,ChIJxZK4fezyNIgR2_RB6uWjS24,40.47961149999999,-79.9744565
45th st,Back To The Earth Healing Center,"23 Butler Street, Pittsburgh",5,ChIJfwiT9qjzNIgRs7mIbZa451I,40.47960500000001,-79.9733962
45th st,99Stains,"421 Grant Avenue, Millvale",N/A,ChIJfUkAXqjzNIgR-oOzOfZnltQ,40.4801531,-79.9738129
45th st,JEM Industries LLC,"10 Sedgwick Street, Pittsburgh",N/A,ChIJbWIuiajzNIgRPEl_ODlkk8g,40.47961149999999,-79.9744565
45th st,Nova Cafe Millvale,"224 Grant Avenue, Pittsburgh",4.5,ChIJ_83TCKnzNIgRLYasLp7swIc,40.4792789,-79.97171039999999
45th st,Millvale United Methodist Church,"122 Butler Street, Millvale",N/A,ChIJc1kFs6nzNIgRzDGo5ucIkVw,40.480366,-79.9721983
46th st,Mt Troy United Church of Christ,"2023 East Homestead Street, Pittsburgh",3,ChIJB5c_y7zzNIgRC-Nvwsd2vtc,40.472973,-79.98246999999999
46th st,First National Bank,"420 Grant Avenue, Pittsburgh",3.9,ChIJ1T-6XKjzNIgR8261qkkFhTg,40.4804116,-79.9737291
46th st,Funhouse Theaters Inc,"400 Lincoln Avenue Basement, Millvale",5,ChIJDZ5sNKjzNIgRpN41omfkT_Y,40.4808548,-79.9722639
46th st,First National Bank ATM,"420 Grant Avenue, Pittsburgh",5,ChIJlz43XajzNIgR_0Rz6R47h0g,40.4804456,-79.973709
46th st,The Funhouse at Mr. Smalls,"400 Lincoln Avenue 2nd floor, Millvale",4.6,ChIJ1zoGtanzNIgRx1pZ87DeHl4,40.48096570000001,-79.9722912
46th st,Millvale Community Center,"416 Lincoln Avenue, Millvale",5,ChIJcWYUSqjzNIgRpn44TyeVNEw,40.4809507,-79.9726999
46th st,The River's Edge Radio Network,"415 Evergreen Avenue Suite 101, Millvale",5,ChIJYYTcEqjzNIgRApr4qqR5zLI,40.4811017,-79.9723102
46th st,Millvale Boro Office,"501 Lincoln Avenue, Millvale",N/A,ChIJIXBmQKjzNIgR0FG8ttUjMHk,40.4811062,-79.9735647
46th st,Mr. Smalls Recording and Mastering,"122 Butler Street, Pittsburgh",4.6,ChIJ0WWKHQX0NIgRzv58VQAAsvI,40.48032020000001,-79.972236
46th st,North Hills Community Outreach - Millvale Office,"416 Lincoln Avenue, Pittsburgh",4.7,ChIJH6QxSqjzNIgRSX5qeDa74Uo,40.4809551,-79.9726993
46th st,Eidenmiller Real Estate,"322 Grant Avenue, Pittsburgh",N/A,ChIJCRoOVqjzNIgRK5ILDppehIk,40.4798513,-79.9727868
46th st,Avanti Insurance Group,"226 Grant Avenue, Millvale",5,ChIJAfoBBqnzNIgRBIrEE7hT4l4,40.47939209999999,-79.9717746
47th st,Celik Insurance Agency Inc.,"2407 Mount Troy Road, Pittsburgh",5,ChIJ_dnf0LzzNIgRWPbvK5s93U0,40.4726478,-79.9832129
47th st,Mt Troy Ballroom,"33 Lonsdale Street, Pittsburgh",4.4,ChIJ57DZaqPzNIgRRm2db2oSk24,40.4741927,-79.98242499999999
47th st,MT Troy Rd + Homestead,United States,N/A,ChIJrfmGxLzzNIgRI0Ec7Y7999A,40.47252899999999,-79.982969
47th st,MT Troy Rd + Homestead,United States,N/A,ChIJqaFc27zzNIgRxxc_ZzmSUL4,40.472433,-79.983036
47th st,Reserve Township,Reserve Township,N/A,ChIJd2QdaXXzNIgR0J13ljHmHAc,40.4862334,-79.9892034
47th st,Corsair Fencing Club,"106 North Avenue, Millvale",5,ChIJsbodDevyNIgRjAV103giq3s,40.47996569999999,-79.97565709999999
47th st,Jean-Marc Chatellier's French Bakery,"213 North Avenue, Millvale",4.8,ChIJ-5-3DKjzNIgRmnRq71bLZuE,40.48123099999999,-79.974795
47th st,Millvale Police Dept,"501 Lincoln Avenue, Millvale",N/A,ChIJIzH5P6jzNIgRM8V8wByk4lE,40.4811032,-79.97365049999999
47th st,Lincoln Pharmacy,"232 North Avenue, Pittsburgh",5,ChIJZymKEajzNIgR63yeyBMEH1U,40.4814278,-79.9743785
47th st,Laundromat,"521 Grant Avenue, Millvale",3.8,ChIJ30rQdqjzNIgR4s-ehYZ5bbU,40.4807503,-79.9749121
47th st,Sperling Family Funeral Services,"123 North Avenue #1, Pittsburgh",N/A,ChIJz6w916fzNIgRBk9iuEIE8mw,40.4804767,-79.9757011
47th st,Hahn Funeral Home & Cremation Services Inc,"123 North Avenue, Millvale",5,ChIJg5cC0afzNIgRIcQCzoRKMi8,40.4804767,-79.9757011
47th st,Ray Feather Photography,"517 Lincoln Avenue, Pittsburgh",N/A,ChIJ24kbPqjzNIgRnXZWVrq8zQI,40.4813842,-79.9742095
47th st,Holy Spirit Church - St. Matthew Parish,"608 Farragut Street, Pittsburgh",4.8,ChIJhYRpzKfzNIgRRGLekeE4Gm8,40.4801274,-79.9760661
47th st,The ALS Association Western Pennsylvania Chapter,"416 Lincoln Avenue, Millvale",4,ChIJH6QxSqjzNIgRpbkiu_GPTn4,40.48094409999999,-79.9727036
47th st,Attic Record Store Inc,"513 Grant Avenue, Millvale",4.9,ChIJif42cKjzNIgRUMNHBPYEJrI,40.4806849,-79.9746859
47th st,Vecenie's Distributing Co,"140 North Avenue, Millvale",4.9,ChIJ2y6TJqnzNIgRWfviOQbxNCI,40.4807191,-79.97494859999999
48th st,Reserve Athletic Association,"2107 Lonsdale Street, Pittsburgh",4.8,ChIJF_6Ae6TzNIgRl-27tGPoYuY,40.4755644,-79.9810814
48th st,Reserve Township Office,"33 Lonsdale Street # 2, Pittsburgh",3,ChIJ57DZaqPzNIgR7onxVzonBs8,40.4741355,-79.98256479999999
48th st,Reserve Volunteer Fire Department,"33 Lonsdale Street, Pittsburgh",5,ChIJ57DZaqPzNIgRQHDhapTDvhw,40.4743828,-79.9822758
48th st,Reserve Primary School,"2107 Lonsdale Street, Pittsburgh",5,ChIJx4G8limNNIgR9X8NMm80qlg,40.4755681,-79.98106159999999
48th st,MT Troy Rd + Alfred,United States,N/A,ChIJ8X6w1LzzNIgRRRxwIkEDo6M,40.473098,-79.983389
48th st,MT Troy Rd + Alfred,United States,N/A,ChIJ73ZH1bzzNIgRI1qm-BPDwws,40.473092,-79.983485
48th st,Pittview Ave + Teutonia,United States,N/A,ChIJm3-5ObzzNIgRmUTB5PgRpo0,40.469086,-79.982807
48th st,The Embassy,"Farragut Street, Millvale",5,ChIJJ-KInKjzNIgR2ZOCZKuQYdE,40.4791205,-79.97491029999999
48th st,The Art of Game,"500 Farragut Street, Pittsburgh",5,ChIJiwPgVULzNIgRJTZKNaYZmfE,40.4791523,-79.9749491
48th st,Krusty the Neighborhood Cat,"2 Sedgwick Street, Pittsburgh",4.6,ChIJY1G6S_rzNIgRfr4HqWbSH5E,40.4793104,-79.97457370000001
48th st,Sliders Ice Curling Bar,"2 Sedgwick Street, Pittsburgh",4.5,ChIJrT4jUifzNIgR1g73jr2Lmgs,40.4793104,-79.97457370000001
48th st,Playground Dropout (Formerly Lumberjaxes Axe Throwing),"2 Sedgwick Street, Pittsburgh",4.9,ChIJ__CDbd7vNIgRA-z5bg2SVdk,40.4793193,-79.9745531
48th st,Smokeys Tavern Inc,"139 Howard Street, Millvale",4.4,ChIJefHX2KfzNIgRsN6QVnEjMB8,40.4809039,-79.9754387
48th st,Bar 3 Millvale,"217 North Avenue, Millvale",4.5,ChIJecOqDajzNIgR9FecW2nyS0s,40.4814083,-79.9748153
Plummer st,MT Troy Rd + Lonsdale,United States,N/A,ChIJDQfp0KLzNIgRqoIM5_SMxVk,40.47376999999999,-79.984078
Plummer st,MRC Copywriting Service,"4101 Mary Drive, Pittsburgh",5,ChIJwbGXBAHzNIgRQ7F8hD4csbI,40.4759277,-79.9823384
Plummer st,Joyce Lee Beauty Salon,"2517 Mount Troy Road, Pittsburgh",5,ChIJFRHUz6LzNIgRSPGv1Ru6FWE,40.47368539999999,-79.9843405
Plummer st,Doshi Bhavank V MD,"2100 James Drive, Pittsburgh",N/A,ChIJl1r8kKPzNIgRnxbS5ydxUZc,40.4764553,-79.98153769999999
Plummer st,MT Troy + Cronemeyer Ave FS,United States,N/A,ChIJx_Mt0KLzNIgRjX4GfrxovnE,40.473738,-79.984456
Plummer st,"American National Skyline, Inc. of Pittsburgh","14 Sedgwick Street, Pittsburgh",N/A,ChIJUUQaqNrzNIgR-wSMUdjF9CQ,40.4796024,-79.9743143
Plummer st,Asgard Raw Dog & Cat Food,"10 Sedgwick Street, Pittsburgh",4.7,ChIJC8pHiajzNIgRZT-3zgGzF38,40.4796371,-79.9744644
Plummer st,Terry Hohman Painting,"15 Hays Street, Pittsburgh",5,ChIJmwa5-6jzNIgRczW1a5KHPzM,40.479365,-79.972893
Plummer st,Northern Area (Millvale) Boys & Girls Club of Western PA,"100 Howard Street, Millvale",5,ChIJ9QjhKKbzNIgRKt8aAG977OQ,40.48033039999999,-79.9764486
Plummer st,Pageboy Salon & Boutique,"420 North Avenue, Pittsburgh",4.9,ChIJWysyvbTzNIgRy1SGsoPrL2w,40.4827187,-79.9731363
Plummer st,OneSource IPS,"409 North Avenue, Pittsburgh",1,ChIJuacviwfzNIgRjTECScS6yhM,40.482556,-79.973787
49th st,Adelphoi Education,"608 Farragut Street, Millvale",5,ChIJhYRpzKfzNIgRv_YQBA1nYNg,40.4802828,-79.9765663
49th st,Bore-Millvale Athletic Field,Millvale,5,ChIJ50Up_KbzNIgRrzq_JRJcRME,40.480069,-79.9783862
49th st,"Pretty Birds, LLC","425 Grant Avenue, Pittsburgh",4.7,ChIJ4wbcYKjzNIgRW_UNp7EhlvQ,40.4800787,-79.9740151
49th st,Ossman Heating & Cooling,"25 Fornoff Street, Pittsburgh",5,ChIJMQ4SKqbzNIgRp14QlCh_us4,40.4802693,-79.9748994
49th st,Tough as nails,"30 Butler Street, Pittsburgh",4.5,ChIJcad7-ZrzNIgRfb02ksyIIbA,40.4796092,-79.9729567
49th st,Millvale Max Fitness,"29 Sedgwick Street, Pittsburgh",N/A,ChIJn5uWY6jzNIgRBoHrcCBvLWw,40.48014089999999,-79.9742833
49th st,McWalker Yarns,"303 Grant Avenue, Pittsburgh",4.8,ChIJEy7rom_zNIgRyffLte8iKL8,40.479234,-79.9722891
49th st,Fox's Pizza Den,"401 Grant Avenue, Pittsburgh",4.2,ChIJ87dkzcTzNIgRQ_0EH32O5gc,40.4797981,-79.9732545
49th st,Shedquarters Self Pet Wash & Pet Supplies,"419 Grant Avenue, Pittsburgh",4.6,ChIJWwigGyvzNIgRAvMD9SjnEhg,40.4800704,-79.97382859999999
49th st,Steel City Scuba,"220 North Avenue suite 4, Millvale",4.7,ChIJjYDnH0BeNIgRsLVFRKJ2jAU,40.481326,-79.9744827
50th st,William R. Prom Memorial Park,"2632 Mount Troy Road, Pittsburgh",N/A,ChIJQ6WctqLzNIgRHbO3W7MYRY8,40.4736182,-79.98523039999999
50th st,MT Troy Rd + #2637,United States,N/A,ChIJGU6_tKLzNIgRAJsjeI3Rosw,40.47345,-79.985237
50th st,MT Troy Rd + #2652,United States,N/A,ChIJ0eOZs6LzNIgR0UxWnpTk6qY,40.473447,-79.98523999999999
50th st,"Blackburn, Vint R, Md","132 Howard Street, Millvale",5,ChIJe_hM16fzNIgRQQRCSS9xNIE,40.480582,-79.97556
50th st,Iron Born Pizza | Millvale,"413 Grant Avenue, Pittsburgh",4.4,ChIJubRmpF3zNIgRtEE5f1jcmRY,40.4800685,-79.9736961
50th st,The AuStella Pet Parlor,"421 Grant Avenue, Millvale",5,ChIJnxXmcLfzNIgRtl5oB_AcpRg,40.4801531,-79.9738129
50th st,PNC ATM,"401 Grant Avenue, Millvale",5,ChIJP03cjRbzNIgR5gEudrOMxvI,40.4798567,-79.9732465
50th st,Release & Restore Wellness Center,"501 Grant Avenue, Millvale",5,ChIJcY_WlrXzNIgR9OY5_63RPaQ,40.48034619999999,-79.9741396
50th st,Clark Barber Co.,"503 Grant Avenue, Pittsburgh",5,ChIJgbhyWB_zNIgRw7fCUBZrOZw,40.4803942,-79.97421279999999
50th st,Curated Flame,"505 Grant Avenue, Millvale",4.9,ChIJ-WdLXWPzNIgRcT6R7buS6Y4,40.4804326,-79.9742952
50th st,Female Trouble Tattoo,"507 Grant Avenue Floor 1, Millvale",4.5,ChIJMU49ez7zNIgRCyDxAI1mSUU,40.4804816,-79.9743893
50th st,"Code.sys Code Consulting, Inc.","321 Grant Avenue, Pittsburgh",3.5,ChIJASojxkvyNIgR4r0gpoytEmM,40.47971889999999,-79.9728868
50th st,Esther's Hobby Shop,"219 North Avenue, Millvale",4.8,ChIJpyDdDajzNIgRROuCpduaAzc,40.481468,-79.974755
50th st,Lincoln's P&G Diner,"232 North Avenue, Pittsburgh",4.7,ChIJZymKEajzNIgR44saWOLvQ8w,40.481517,-79.97427689999999
50th st,"Dr. Madhuri V. Mahajan, MD","420 North Avenue, Pittsburgh",5,ChIJt1YnhAfzNIgR1W2A40MePfM,40.4827238,-79.9730998
51st st,Veterans Place of Washington Boulevard,"25 Bateman Street Apartment 4, Pittsburgh",N/A,ChIJ083apoDzNIgR96ZHfxzZKng,40.4806974,-79.97856879999999
51st st,Thatdude,"25 Bateman Street, Millvale",N/A,ChIJlxddrN3zNIgRFr8dF9LooAw,40.480739,-79.97864299999999
51st st,"Dr. George R. Sitterle, DDS","820 Stanton Avenue, Pittsburgh",2.2,ChIJ88Tjp53zNIgRKm3jvdErm34,40.4805543,-79.9793942
51st st,Studio PDP Letterpress & Illustration,"507 1/2 Grant Avenue, Millvale",5,ChIJr_ucC8rzNIgRWJoZW41QtgE,40.4805251,-79.9744267
Stanton ave,MT Troy Rd + #2722,United States,N/A,ChIJ7yPBB5jzNIgRlZv-v8EDs7U,40.473907,-79.98653399999999
Stanton ave,MT Troy Rd + #2722,United States,N/A,ChIJuafUBZjzNIgRGvcMwOeiSD8,40.473908,-79.986626
Stanton ave,Hinds Site,"17 Johnson Street, Millvale",5,ChIJE3yVEKfzNIgRKQ6Ji4qEmgY,40.4810982,-79.97891659999999
Stanton ave,Rebella Artistry,"849 Stanton Avenue, Pittsburgh",N/A,ChIJZ691DK_zNIgRitU-U29uQQU,40.4807119,-79.9807488
Stanton ave,Civil Engineering Design & Consulting,"141 Howard Street, Pittsburgh",N/A,ChIJDavT4mvzNIgRrs8lq7y8RQo,40.4809356,-79.975306
Stanton ave,McGrath Medical,"141 Howard Street, Pittsburgh",N/A,ChIJ84JIssXzNIgRr5drUFb-zMI,40.4809356,-79.975306
Stanton ave,Somers Creative Group,"143 Howard Street, Pittsburgh",N/A,ChIJ7bnFL5fzNIgRkMyauF5kvqA,40.4809712,-79.9752638
Stanton ave,Grant Avenue Pocket Park G.A.P.P. (GAP Park),"518 Grant Avenue, Pittsburgh",3.9,ChIJJcWRcajzNIgRepfA08Ehy40,40.48082580000001,-79.9746389
Stanton ave,Yetter's Candies,"504 Grant Avenue, Pittsburgh",4.8,ChIJCdPiaKjzNIgRA7wptzOzD-E,40.480545,-79.974147
Stanton ave,One Happy Flower Shop,"502 Grant Avenue, Millvale",5,ChIJI3BaaKjzNIgRW3UwerOrR7k,40.4805278,-79.9740814
Stanton ave,Atkinson Beer Distributor,"315 North Avenue, Pittsburgh",4.5,ChIJJ53YHqjzNIgRxhmeAW5elL0,40.48217229999999,-79.9740195
52nd st,Love Place Photography,"2997 Houston Street, Pittsburgh",5,ChIJlY4CYbzuNIgRlYOQI5NTh_w,40.4780408,-79.98487949999999
52nd st,MT Troy Rd + #2768,United States,N/A,ChIJ0XzRcZjzNIgRNiLSY3GSDrY,40.475278,-79.98692799999999
52nd st,Three Rivers Tattoo,"524 Grant Avenue floor 2, Millvale",4.7,ChIJxZBjZajzNIgRj4GvDPTX5mk,40.4810224,-79.9747074
52nd st,"W Group Holdings, LLC","413 North Avenue, Pittsburgh",3.5,ChIJUZg76VR9NIgRInHUwFFLo4k,40.482651,-79.973738
52nd st,Ancur Design and Supply Company,"544 North Avenue, Millvale",3.8,ChIJVR6DGfzxNIgRtirGbdTtF6o,40.4849807,-79.9728502
McCandless ave,MT Troy Rd + Fornof Ln,United States,N/A,ChIJK-G9A6LzNIgRzq9gn7TikMo,40.478233,-79.98604399999999
McCandless ave,Pro Towing Service,"211 North Avenue, Millvale",3,ChIJw_oGyLfzNIgR9RsR8AEACLg,40.4812556,-79.9749528
McCandless ave,Millvale Market,"524 Grant Avenue Floor 1, Millvale",4.6,ChIJ47pOfZPzNIgRY_j6yEEmhLA,40.4810875,-79.97467499999999
McCandless ave,Junk Magician,"115 Colton Street, Pittsburgh",5,ChIJw0nT9i_zNIgR03Xg0Rc18xg,40.4821865,-79.9764977
McCandless ave,Associated Services Inc,"2 Klopfer Street, Pittsburgh",5,ChIJr5cnVwbzNIgRXHUYN_O-Jqs,40.4851458,-79.97272269999999
McCandless ave,St John's Lutheran Church,"501 North Avenue, Millvale",4.8,ChIJrzMivQfzNIgRUY3rpanPM-s,40.4837273,-79.9732401
McCandless ave,Daljit Singh & Associates: Signh Daljit MD,"420 North Avenue, Millvale",1,ChIJt1YnhAfzNIgRY4_WaLqko34,40.48283929999999,-79.97341089999999
McCandless ave,Millvale VFD Station 191,"501 Lincoln Avenue, Millvale",5,ChIJIXBmQKjzNIgR5AahyMeD1EQ,40.4811062,-79.9735647
McCandless ave,RPI Rentals,"409 North Avenue, Pittsburgh",2.5,ChIJf5BVigfzNIgRAqe_XboMv_I,40.482513,-79.973754
53rd st,Rusty Hook Auto Salvage in Pittsburgh,"3015 Mount Troy Road, Pittsburgh",4.9,ChIJQf77OkLzNIgRz3--q9K9Wh0,40.4783377,-79.9868127
53rd st,Steve's Used Tires,"3015 Mount Troy Road, Pittsburgh",4.5,ChIJq2pE5Wv0NIgRquhGNIw6cPQ,40.4784198,-79.9868182
53rd st,MT Troy Rd + Fornoff,United States,N/A,ChIJudxiAKLzNIgRkfdS47d2Fao,40.478464,-79.986385
53rd st,MT Troy Rd + #2840,United States,N/A,ChIJU6_3kpjzNIgRe348rCjIgeI,40.476907,-79.98756499999999
53rd st,Ironborn Contracting,"3018 Mount Troy Road, Pittsburgh",4.7,ChIJ__-T_aHzNIgRBjOUr_r5HTs,40.4788407,-79.9863853
53rd st,MT Troy Rd + Pieffers Store,United States,N/A,ChIJB2PK7JjzNIgRijkLegLHZw4,40.47679100000001,-79.98774399999999
53rd st,Painting N' At,"223 Karen Drive, Millvale",5,ChIJr5vuxhnzNIgRNqsMc784Qfk,40.4800374,-79.9849748
53rd st,Select Dental,"547 North Avenue, Millvale",4.9,ChIJ2VhJTAbzNIgRYCQiZXheQVs,40.4850654,-79.9731521
53rd st,Lloyd McBride Court,"614 Lincoln Avenue, Millvale",4.5,ChIJYS_GAajzNIgRdC__Xp5AsVk,40.4823236,-79.9749456
53rd st,Zurcher Home Improvements,"317 William Street, Pittsburgh",5,ChIJS9c9XBHzNIgRAX5gx4KWZ_Q,40.4828567,-79.9752041
54th st,Rick Horn Construction Inc,"933 Stanton Avenue, Pittsburgh",4,ChIJLcQNj6DzNIgRSUYMtTTUMtY,40.4824967,-79.9836316
54th st,J P Paracca Flooring and Design,"221 North Avenue, Pittsburgh",4.6,ChIJXYlVhanzNIgRvS7OIfEGB00,40.48151289999999,-79.9747216
54th st,Linked Hair Salon,"223 North Avenue, Millvale",4.9,ChIJrz5xWVPzNIgRNS6KhhcRWWc,40.4815508,-79.9746198
54th st,LibertyX Bitcoin ATM,"225 North Avenue, Millvale",N/A,ChIJjZiJA4jzNIgRNJrr_bc3o1Q,40.48159460000001,-79.9746018
54th st,Millvale tobacco outlet,"225 North Avenue, Millvale",5,ChIJHUQ29jjzNIgRQtyC-K0qFgk,40.48159460000001,-79.9746018
54th st,Custom Hair Studio,"227 North Avenue, Millvale",5,ChIJc0v6A1PzNIgRz9x40fArCP8,40.48166680000001,-79.9745439
54th st,Totaro’s Italian Eatery,"220 North Avenue, Millvale",3.4,ChIJ_8ixOeLzNIgRDtOMgy3N80g,40.4812342,-79.97438369999999
54th st,Sidelines Bar & Grill,"621 Evergreen Avenue, Pittsburgh",4.4,ChIJPcu-9wbzNIgRb9WEeyA2mGU,40.485491,-79.97248599999999
55th st,MT Troy Rd + Kinkura,United States,N/A,ChIJQ4poR5_zNIgRS9D4PMjH9G4,40.479397,-79.987611
55th st,MT Troy Rd + Kinkura,United States,N/A,ChIJE74lQZ_zNIgRKJ-CtssWfjA,40.4795,-79.98763
55th st,McCarthy Park,Millvale,N/A,ChIJG2tG2KfzNIgRFZC1cH94LQg,40.4806544,-79.9753523
55th st,Tasty Taquitos,"301 North Avenue, Pittsburgh",5,ChIJQQ9urQTzNIgR7VgT3deDMQI,40.4818167,-79.97431859999999
55th st,"Dr. Franklin N. Masin, MD",United States,N/A,ChIJ5QXLFqjzNIgR_SWoNohU_KE,40.48138600000001,-79.97425989999999
55th st,Millvale Lanes,"523 Lincoln Avenue, Millvale",4.2,ChIJF9KOFqjzNIgRZTFvyGDO8pE,40.481462,-79.974139
55th st,ATM,"313 North Avenue, Pittsburgh",N/A,ChIJVbV6V6jzNIgRjD15Ngc1KTs,40.4821316,-79.97416009999999
55th st,Poetry Lounge,"313 North Avenue, Pittsburgh",4.6,ChIJvwufmXbzNIgRF-PfYxCSA0E,40.48214279999999,-79.9741324
56th st,Spring Garden Ave + Reekes Way,United States,N/A,ChIJQZAHqpnzNIgRpfQMtZ0SLtQ,40.476272,-79.989269
56th st,Spring Garden Ave + Reekes Way,United States,N/A,ChIJw4wHqpnzNIgRlcJcqlo9TtY,40.47631700000001,-79.98939
56th st,Glenn Distributing Inc.,"315 North Avenue, Millvale",4.6,ChIJMwCRUnfzNIgRZ60sVpK9c2I,40.48217229999999,-79.9740195
56th st,Smithfield Cemetery,"413 North Avenue, Pittsburgh",N/A,ChIJp4RdiwfzNIgRwPQ8SE52LQ8,40.482651,-79.973738
56th st,First United Church of Christ,"425 North Avenue, Pittsburgh",5,ChIJCZATkgfzNIgRIg2KQN-AZyo,40.48288220000001,-79.9733382
Hatfield st,God With Us on Pittsbugh Radio,"501 North Avenue, Pittsburgh",N/A,ChIJXW0Zmp3zNIgRUyr5RjU06hQ,40.4837687,-79.9731891
Hatfield st,Di Matteo Michael A,"539 North Avenue, Millvale",N/A,ChIJ-5vYsgfzNIgRrcptXaVayqM,40.48479409999999,-79.9731905
Hatfield st,Dr. Jessica Liao,"547 North Avenue, Pittsburgh",N/A,ChIJpZ63TQbzNIgRTP9SqhARIxw,40.4850699,-79.973259
Hatfield st,Kyle’s Cakes N’at,"543 North Avenue, Pittsburgh",5,ChIJgx-Db-V7xokR6LCiU7HTlmo,40.4849365,-79.9731708
Hatfield st,Veterans of Foreign Wars Post 118,"605 North Avenue, Millvale",4.6,ChIJG26sRgbzNIgRIhXCK8JYmOg,40.48539099999999,-79.9733224
Fisk st,MT Troy Rd + Baun,United States,N/A,ChIJ6yiUVJ7zNIgRfz4WIomnwGc,40.481491,-79.989209
Fisk st,All Automatic Transmisson Properties,"625 North Avenue, Millvale",4.2,ChIJO8NjqbTzNIgRHFWB2QKdG90,40.4861563,-79.97336949999999
Fisk st,Caesars Alehouse & Eatery,"623 North Avenue, Millvale",4.7,ChIJUUsxHFPzNIgR7JI0P48xA4E,40.4860543,-79.97329839999999
Smallman st,MT Troy Rd + Ridgelawn Cemetery Ent,United States,N/A,ChIJcVxfTJ7zNIgRmEhfkS7fqiI,40.482084,-79.98947199999999
Charlotte,"The Preferred Nanny, LLC","479 Irwin Lane, Pittsburgh",5,ChIJWS42XgzzNIgRe3cqkfzs-KU,40.4896057,-79.983415
