Address,Business Name,Street,Rating,Latitude,Longitude,Flag
"0048H00200000000, Pittsburgh",LAWRENCEVILLE BOAT LAUNCH,butler st,,40.4716101,-79.9672358,consolidated
"101A Bridge Street, Millvale",Three Rivers Boat Rental,39th St,4.4,40.4759885,-79.9685157,broad_filled
"1922, 4617 Liberty Avenue, Pittsburgh",Lot 17,liberty ave,4.5,40.4624552,-79.9502692,consolidated
"199-191 36th Street, Pittsburgh",POGOH Bike Share Station,penn ave,,40.4654394,-79.96551790000001,bounding_only
"287-255 40th Street, Pittsburgh",Allegheny Arsenal Historical Marker,penn ave,3.0,40.4672303,-79.9605033,consolidated
"3513A Butler Street, Pittsburgh","ISKCON Pittsburgh, PA",penn ave,5.0,40.464408,-79.9663065,consolidated
"35th Street, Pittsburgh",Pink lot 3,34th St,,40.46473,-79.96815730000002,broad_filled
"4052b Liberty Avenue, Pittsburgh",Budget Truck Rental,liberty ave,2.3,40.46293709999999,-79.955347,consolidated
"40th Street, Pittsburgh",Allegheny County Maintenance District 7,penn ave,,40.47085259999999,-79.96496929999999,consolidated
"8, 3901 Penn Avenue #3, Pittsburgh",Allegheny County Health Department Public Health Laboratory,penn ave,3.5,40.4654045,-79.95903969999999,consolidated
"Arsenal Lanes, 212 44th Street, Pittsburgh",Cardtronics,butler st,,40.471189,-79.9595354,consolidated
"basement, 4112 Butler Street, Pittsburgh",Kickback Pinball Cafe,penn ave,4.6,40.4698275,-79.9606481,consolidated
"Bloomfield Homes, Block 3 Lot 17 Section 2, Pittsburgh",Axel Rimorin House 2,liberty ave,,40.462472,-79.950266,bounding_only
"Butler St &, 46th Street, Pittsburgh",Leslie Park,butler st,5.0,40.472813,-79.95880319999999,consolidated
"c/o Beauty Shoppe, 3706 Butler Street, Pittsburgh","New Ivy Group, LLC",penn ave,,40.4663709,-79.9643997,bounding_only
"Clement Way, Pittsburgh",Clement Way Graffiti Alley,liberty ave,5.0,40.463838,-79.95373579999999,bounding_only
"Edmond Street, Pittsburgh",Bloomfield Lofts,liberty ave,,40.4612999,-79.94781429999999,bounding_only
"Farragut Street, Millvale",The Embassy,50th st,5.0,40.4791205,-79.97491029999999,consolidated
"First floor, 3538 Butler Street, Pittsburgh",Studio 725 Hair Boutique,penn ave,4.5,40.4649929,-79.9653896,bounding_only
"Gold Way, Pittsburgh",Family Foot Center,Liberty Ave,,40.45794089999999,-79.9550345,broad_filled
"Hazelwood Trail, Pittsburgh",Bernard Dog Run,34th st,4.5,40.4697723,-79.9682768,consolidated
"Lawrenceville Market House, 4112 Butler Street, Pittsburgh",Main Street Diner,penn ave,5.0,40.4698449,-79.9607555,consolidated
"Lawrenceville Trail, Pittsburgh",Lawrenceville Three Rivers Heritage Trail,butler st,4.6,40.47136130000001,-79.967191,consolidated
"Liberty At, 4779 South Mathilda Street, Pittsburgh",Sunoco Gas Station,liberty ave,2.1,40.460995,-79.9473563,bounding_only
"Main Street, Pittsburgh","BCD Pink, Inc. Drop and Fluff!",penn ave,,40.46689879999999,-79.95673699999999,consolidated
"Martin Luther King Jr. East Busway, Pittsburgh",Bloomfield Bridge,liberty ave,5.0,40.4603451,-79.9559297,consolidated
Millvale,Bore-Millvale Athletic Field,stanton ave,5.0,40.480069,-79.9783862,consolidated
Millvale,McCarthy Park,52nd st,,40.4806544,-79.9753523,consolidated
Millvale,Three Rivers Water Trail Launch- Millvale Boat Launch,38th St,4.0,40.469387,-79.9746488,broad_filled
Millvale,Washington Crossing Bridge,39th st,5.0,40.4728222,-79.96856509999999,consolidated
Millvale,Millvale,34th st,,40.480069,-79.9783862,consolidated
"One Sheridan Street, Millvale",Christman Chemical Co. Inc.,48th st,,40.4773719,-79.9718496,consolidated
"Parking, Lot 108 43rd Street, Pittsburgh",Pittsburgh Burrito Bus,butler st,3.0,40.4724333,-79.9631394,consolidated
Pittsburgh,Bloomfield,liberty ave,,40.4621606,-79.94445259999999,consolidated
Pittsburgh,Baseball Field,butler st,,40.4723589,-79.9574781,bounding_only
Pittsburgh,Lawrenceville,penn ave,,40.4698118,-79.9609176,consolidated
Pittsburgh,Washington's Landing Public Tennis Courts,37th St,,40.4686111,-79.9740851,broad_filled
Pittsburgh,Pittsburgh,liberty ave,,40.44062479999999,-79.9958864,consolidated
Pittsburgh,Look Out Street Parklet,41st St,3.8,40.46934299999999,-79.9770565,broad_filled
Pittsburgh,Agustin home cleaning services LLC,butler st,,40.4717898,-79.961373,bounding_only
Pittsburgh,Herrs Island North Park,37th St,4.7,40.4689668,-79.97364809999999,broad_filled
Pittsburgh,"Sharon L. Hovis, LSW",liberty ave,,40.46578699999999,-79.94944249999999,bounding_only
Pittsburgh,Basketball Court,liberty ave,,40.4622423,-79.95393779999999,consolidated
Pittsburgh,33rd Street Railroad Bridge,34th St,,40.4648553,-79.9728308,broad_filled
Pittsburgh,Mark Gillece Plumbing & Heating,butler st,3.0,40.47371630000001,-79.96123659999999,bounding_only
Pittsburgh,Baseball Field,butler st,,40.4727703,-79.9567788,bounding_only
Pittsburgh,Saint Nicholas Cemetery,46th st,,40.4748924,-79.9783674,consolidated
Pittsburgh,Melwood Parklet,liberty ave,,40.4599128,-79.9574781,consolidated
Pittsburgh,Baseball Field,penn ave,,40.4663936,-79.96132419999999,bounding_only
Pittsburgh,Sullivan Field,Penn Ave,3.6,40.4625037,-79.9635321,broad_filled
Pittsburgh,John (Baldy) McGrane Memorial Field,butler st,,40.47257219999999,-79.9572159,bounding_only
Pittsburgh,Giant Eagle,butler st,,40.4714933,-79.9652919,consolidated
Pittsburgh,Hockey Rink,penn ave,,40.4667266,-79.9619798,bounding_only
Pittsburgh,Lawrenceville Community Garden,penn ave,,40.4675258,-79.9562543,bounding_only
Pittsburgh,POGOH Bike Share Station,penn ave,,40.4702146,-79.96036169999999,consolidated
Reserve Township,Reserve Township,42nd st,,40.4862334,-79.9892034,consolidated
"Rite Aid, 3939 Butler Street, Pittsburgh",Amazon Locker - Gull,penn ave,,40.468985,-79.96325499999999,consolidated
"Ronald McDonald House, 451 44th Street, Pittsburgh",Citizens Bank,penn ave,3.0,40.46747000000001,-79.9539042,bounding_only
"Side Door, 4100 Davison Street, Pittsburgh",Andy Johanson,penn ave,5.0,40.46898319999999,-79.9589723,consolidated
"The Ice House Studios, 100 43rd Street Unit 114, Pittsburgh",The Irving and Aaronel deRoy Gruber Foundation,butler st,5.0,40.4729117,-79.9636664,consolidated
United States,Penn Ave + 39th St,penn ave,5.0,40.464779,-79.960281,consolidated
United States,East Ohio St + Grant,44th St,,40.478296,-79.96892000000001,broad_filled
United States,Butler St at 36th St,penn ave,,40.465381,-79.96527449999999,bounding_only
United States,Liberty Ave at Canoe Way,liberty ave,,40.4631355,-79.955061,bounding_only
United States,Friendship Ave at Pearl St,liberty ave,,40.463452,-79.9489205,bounding_only
United States,Howley St at Friendship Ave,liberty ave,,40.465112,-79.951343,bounding_only
United States,Penn Ave at Main St,liberty ave,,40.465604,-79.9552175,bounding_only
United States,Butler St + 44th,butler st,,40.4715875,-79.9597981,bounding_only
United States,"Dr. Franklin N. Masin, MD",52nd St,,40.48138600000001,-79.97425989999999,broad_filled
United States,MT Troy Rd + Baun,Charlotte,,40.481491,-79.989209,broad_filled
United States,MT Troy Rd + Alfred,51st St,,40.473092,-79.983485,broad_filled
United States,Lowrie St at Heckleman St,44th St,,40.468698,-79.9790915,broad_filled
United States,Friendship Ave + Ella St,liberty ave,,40.46461499999999,-79.950508,bounding_only
United States,East Ohio St at Grant Ave,43rd St,,40.47802599999999,-79.9692915,broad_filled
United States,MT Troy Rd + Alfred,51st St,,40.473098,-79.983389,broad_filled
United States,Friendship Ave + Pearl St,liberty ave,,40.46349,-79.94881199999999,bounding_only
United States,Butler St + 43rd,penn ave,,40.470478,-79.96037299999999,consolidated
United States,Liberty Ave + Main St (Bloomfield Bridge),liberty ave,,40.463497,-79.95336499999999,bounding_only
United States,MT Troy Rd + Lonsdale,Stanton Ave,,40.47376999999999,-79.984078,broad_filled
United States,Penn Ave + 36th,penn ave,,40.46424699999999,-79.963848,consolidated
United States,MT Troy Rd + Kinkura,Fisk St,,40.4795,-79.98763,broad_filled
United States,40th St + Davidson St FS,penn ave,,40.467651,-79.96094,consolidated
United States,Friendship Ave + Pearl St,liberty ave,,40.463627,-79.949135,bounding_only
United States,Penn Ave + 36th,penn ave,5.0,40.46413099999999,-79.96403099999999,consolidated
United States,Butler St + 39th,penn ave,,40.467355,-79.963858,consolidated
United States,MT Troy Rd + Fornof Ln,55th St,,40.478233,-79.98604399999999,broad_filled
United States,Penn Ave + 39th St,penn ave,,40.464861,-79.960202,consolidated
United States,Penn Ave + Main St,penn ave,3.0,40.465573,-79.955463,bounding_only
United States,Lowrie St + Heckleman,44th St,,40.468788,-79.97908,broad_filled
United States,Butler St + 46th,butler st,,40.472953,-79.95873499999999,consolidated
United States,Butler St + 36th St,penn ave,,40.46547899999999,-79.96531,bounding_only
United States,MT Troy Rd + Kinkura,Fisk St,,40.479397,-79.987611,broad_filled
United States,Butler St at 38th St,penn ave,,40.4668077,-79.9642786,consolidated
United States,Butler St + 41st,penn ave,,40.46958600000001,-79.96124999999999,consolidated
United States,Penn Ave at 40th St,penn ave,,40.4651715,-79.957978,bounding_only
United States,Butler St + 36th St,penn ave,,40.465433,-79.965183,bounding_only
United States,39th St + Butler,penn ave,,40.467498,-79.96359199999999,bounding_only
United States,Butler St + 37th,penn ave,,40.466091,-79.964775,bounding_only
United States,Liberty Ave at Pearl St,liberty ave,,40.462094,-79.949877,bounding_only
United States,Propane Grills & Campers,42nd St,,40.4776415,-79.9694391,broad_filled
United States,MT Troy Rd + #2840,Fisk St,,40.476907,-79.98756499999999,broad_filled
United States,Main St + Howley FS,liberty ave,,40.46420699999999,-79.953178,bounding_only
United States,Penn Ave + Main,penn ave,,40.465725,-79.95505399999999,bounding_only
United States,Ella St + Liberty,liberty ave,5.0,40.46331439999999,-79.951753,bounding_only
United States,Main St + Howley,liberty ave,,40.46434000000001,-79.953484,bounding_only
United States,Liberty Ave + Pearl,liberty ave,,40.46210900000001,-79.949989,bounding_only
United States,Friendship Ave + Howley,liberty ave,,40.46525,-79.951388,bounding_only
United States,Pittsburgh Restaurant Workers Aid,liberty ave,,40.4623197,-79.9505399,bounding_only
United States,Butler St + 37th St,penn ave,,40.46633,-79.96471,consolidated
United States,Butler St + 47th,butler st,,40.473871,-79.95795300000002,consolidated
United States,Friendship Ave + Howley,liberty ave,,40.46510900000001,-79.95106899999999,bounding_only
United States,Howley St + Shur Save Drvwy (Gangwish),liberty ave,5.0,40.4643983,-79.95226219999999,bounding_only
United States,Liberty Ave + Pearl,liberty ave,,40.46209699999999,-79.949748,bounding_only
United States,Butler St + 38th St,penn ave,,40.466967,-79.964263,consolidated
United States,Cj Hoffman Agency Inc,liberty ave,,40.4617197,-79.9494237,bounding_only
United States,Friendship Ave + Taylor St,liberty ave,5.0,40.464046,-79.949724,bounding_only
United States,Butler St + 38th St,penn ave,,40.466735,-79.964298,bounding_only
United States,Lowrie St + Heckleman,44th St,,40.468706,-79.97907099999999,broad_filled
United States,Liberty Ave + Canoe,liberty ave,,40.463092,-79.955382,bounding_only
United States,Penn Ave at 39th St,penn ave,,40.464784,-79.9601795,consolidated
United States,Howley St + Friendship,liberty ave,5.0,40.46505399999999,-79.95138999999999,bounding_only
United States,Ella St + Friendship Ave FS,liberty ave,,40.46446700000001,-79.950631,bounding_only
United States,Liberty Ave + Canoe Way,liberty ave,,40.463252,-79.955043,bounding_only
United States,Liberty Ave + Ella,liberty ave,,40.4631554,-79.9520031,bounding_only
United States,Butler St + 47th,butler st,1.0,40.47409099999999,-79.95790699999999,consolidated
United States,40th + Government Way Steps,penn ave,,40.4655813,-79.9584891,consolidated
United States,Liberty Ave + Main St FS,liberty ave,,40.46343799999999,-79.953997,bounding_only
United States,Penn Ave + 40th,penn ave,,40.46511799999999,-79.958117,bounding_only
United States,Butler St at 37th St,penn ave,,40.46618049999999,-79.9647075,consolidated
United States,Liberty Ave + Ella,liberty ave,,40.463116,-79.951646,bounding_only
United States,Liberty Ave at Ella St,liberty ave,,40.4632166,-79.9518375,bounding_only
United States,Butler St at 44th St,butler st,,40.47147799999999,-79.959745,consolidated
United States,40th St + Butler,penn ave,,40.468544,-79.962105,consolidated
United States,Main St + Penn NS,liberty ave,3.0,40.46545,-79.95482899999999,bounding_only
United States,Butler St + 43rd,butler st,,40.470807,-79.960274,bounding_only
United States,Liberty Ave at Edmond St,liberty ave,,40.4611295,-79.94807899999999,bounding_only
United States,Butler St + 44th,butler st,,40.471294,-79.959801,consolidated
United States,40th St + Davidson,penn ave,,40.467598,-79.960979,consolidated
United States,Liberty Ave + 40th St NS,liberty ave,,40.46303299999999,-79.956405,bounding_only
United States,MT Troy Rd + Homestead,50th St,,40.472433,-79.983036,broad_filled
United States,Penn Ave + 40th St,penn ave,4.0,40.46526199999999,-79.957734,bounding_only
United States,Troy Hill Loop + Lowrie,43rd St,,40.469269,-79.97863199999999,broad_filled
United States,Butler St + 46th,butler st,,40.47267099999999,-79.95884699999999,consolidated
United States,MT Troy Rd + Homestead,50th St,,40.47252899999999,-79.982969,broad_filled
United States,Butler St at 46th St,butler st,,40.4728355,-79.958765,consolidated
United States,MT Troy Rd + Fornoff,56th St,,40.478464,-79.986385,broad_filled
United States,Butler St + Main,penn ave,,40.4697199,-79.9609052,bounding_only
United States,Butler St at 39th St,penn ave,,40.4675415,-79.9635705,consolidated
United States,Butler St + 39th,penn ave,,40.467679,-79.9637,consolidated
United States,Bigelow Blvd + Bloomfield Bridge,Liberty Ave,,40.458614,-79.95749699999999,broad_filled
United States,MT Troy + Cronemeyer Ave FS,McCandless Ave,,40.473738,-79.984456,broad_filled
United States,Butler St + 40th St NS,penn ave,,40.468342,-79.962688,consolidated
"Willow Street, Pittsburgh",Icehouse Parking,butler st,4.0,40.4725322,-79.9634835,consolidated
1 43RD ST,43rd Street Concrete,39th St,4.5,40.4751821,-79.9645814,broad_filled
1 MCCANDLESS AVE,,,,,,
1 OHARA PL,,,,,,
1 OHARA PL APT 1,,,,,,
1 OHARA PL APT 2,,,,,,
1 OHARA PL APT 3,,,,,,
1 SAINT JOHN PL,,,,,,
1 SAINT JOHN PL APT 1,,,,,,
1 SAINT JOHN PL APT 2,,,,,,
1 SAINT JOHN PL APT 3,,,,,,
"1 Sheridan Street, Millvale","Leone Electrical Contractors, LLC",48th st,3.5,40.47745049999999,-79.97203119999999,consolidated
10 40TH ST,National Robotics Engineering Center,butler st,4.9,40.4728736,-79.9650268,consolidated
10 40TH ST,Carnegie Mellon Robotics Academy,butler st,,40.47317590000001,-79.96500619999999,consolidated
"10 East Sherman Street, Pittsburgh",Grist House Craft Brewery,45th St,4.8,40.4787139,-79.9722824,broad_filled
"10 Sedgwick Street, Pittsburgh",Asgard Raw Dog & Cat Food,51st st,4.7,40.4796371,-79.9744644,consolidated
"10 Sedgwick Street, Pittsburgh",JEM Industries LLC,51st st,,40.47961149999999,-79.9744565,consolidated
"10 Sedgwick Street, Pittsburgh",TABS Asphalt & Concrete Inc.,51st st,,40.47961149999999,-79.9744565,consolidated
100 40TH ST,Steel City Speed & Custom,penn ave,4.6,40.4708268,-79.9647737,consolidated
100 43RD ST,Renaissance & Baroque,butler st,,40.4728608,-79.9638889,consolidated
100 43RD ST,Karen Meyers Photography,butler st,5.0,40.4728608,-79.9638889,consolidated
100 43RD ST,Asia Margo Photography,butler st,,40.4729243,-79.96394649999999,consolidated
100 43RD ST,"ProtoInnovations, LLC",butler st,5.0,40.47287370000001,-79.9638856,consolidated
100 43RD ST,Pittsburgh Ultimate,butler st,5.0,40.4726675,-79.9638216,consolidated
100 43RD ST,McCormick Architects and Designers,butler st,5.0,40.47287370000001,-79.9638856,consolidated
100 43RD ST,Ice House Studios,butler st,4.8,40.472912,-79.9636963,consolidated
100 43RD ST,Associated Artists of Pittsburgh,butler st,5.0,40.4731817,-79.96369109999999,consolidated
100 43RD ST,Elan Mizrahi Photography,butler st,5.0,40.4729254,-79.963728,consolidated
"100 43rd Street #105, Pittsburgh",Chez Lapin,butler st,5.0,40.4725733,-79.9637281,consolidated
"100 43rd Street #106, Pittsburgh",Gingerly Press,butler st,5.0,40.4729243,-79.96394649999999,consolidated
"100 43rd Street #108, Pittsburgh",Kelly Lane,butler st,,40.4728608,-79.9638889,consolidated
"100 43rd Street #108, Pittsburgh",KLoRebel Art Co.,butler st,,40.4728608,-79.9638889,consolidated
"100 43rd Street #112, Pittsburgh",TRVR Handwired Electronics,butler st,,40.4728738,-79.9638856,consolidated
"100 43rd Street #112, Pittsburgh",Rainstick Dreams,butler st,5.0,40.4728738,-79.9638856,consolidated
"100 43rd Street #113, Pittsburgh",Steel Dragon,butler st,5.0,40.4728608,-79.9638889,consolidated
"100 43rd Street #116, Pittsburgh",Curiosity Shop,butler st,4.9,40.47292839999999,-79.96385380000001,consolidated
"100 43rd Street #208, Pittsburgh",Lawrenceville Corporation,butler st,4.8,40.4729243,-79.96394649999999,consolidated
"100 43rd Street #211, Pittsburgh","SKIBBA Illustration, LLC",butler st,,40.47292399999999,-79.96394699999999,consolidated
"100 43rd Street #211, Pittsburgh",Neoforma Design,butler st,,40.47287370000001,-79.9638856,consolidated
"100 43rd Street #211, Pittsburgh",Keith & Co.,butler st,,40.4728989,-79.9639163,consolidated
"100 43rd Street #211, Pittsburgh","Depiction, LLC",butler st,,40.4728387,-79.9635857,consolidated
"100 43rd Street Suite 205, Pittsburgh",Stone + Sparrow Studio,butler st,5.0,40.4729243,-79.96394649999999,consolidated
100 44TH ST,,,,,,
100 49TH ST,,,,,,
100 50TH ST,,,,,,
"100 Howard Street, Millvale",Northern Area (Millvale) Boys & Girls Club of Western PA,52nd st,5.0,40.48033039999999,-79.9764486,consolidated
"100 Waterfront Drive, Pittsburgh",Herrs Island North Park Lookout Point,37th st,5.0,40.4700515,-79.9725217,consolidated
101 43RD HALF ST,,,,,,
101 43RD ST,,,,,,
101 44TH ST APT 1,,,,,,
101 44TH ST APT 2,,,,,,
101 49TH ST,,,,,,
"101 Bridge Street, Pittsburgh",Millvale Marina,39th St,4.5,40.47595759999999,-79.9683909,broad_filled
102 1/2 44TH ST,,,,,,
102 43RD HALF ST,,,,,,
102 44TH ST,,,,,,
102 MCCANDLESS AVE,,,,,,
103 44TH ST,,,,,,
103 44TH ST APT 1,,,,,,
103 44TH ST APT 2,,,,,,
103 49TH ST,,,,,,
103 HONEYCRISP LN,,,,,,
104 1/2 44TH ST,,,,,,
104 43RD HALF ST,,,,,,
104 44TH ST,,,,,,
105 40TH ST,Techmill 41,butler st,3.5,40.4715778,-79.9649063,consolidated
105 40TH ST,Children's Hospital of Pittsburgh Foundation,butler st,5.0,40.4713134,-79.9650802,consolidated
105 43RD ST,,,,,,
105 47TH ST,,,,,,
105 53RD ST,,,,,,
106 44TH ST,,,,,,
106 53RD ST,,,,,,
"106 North Avenue, Millvale",Corsair Fencing Club,stanton ave,5.0,40.47996569999999,-79.97565709999999,consolidated
107 43RD HALF ST,,,,,,
107 44TH ST,,,,,,
107 47TH ST,,,,,,
107 HONEYCRISP LN,,,,,,
108 43RD HALF ST,,,,,,
108 43RD ST,,,,,,
108 44TH ST,,,,,,
109 42ND ST,,,,,,
109 43RD HALF ST,,,,,,
109 44TH ST,,,,,,
109 48TH ST,,,,,,
110 44TH ST,,,,,,
110 57TH ST,,,,,,
111 35TH ST,A. R. Chambers Supply,34th St,4.9,40.46508199999999,-79.96827019999999,broad_filled
111 42ND ST,,,,,,
111 43RD HALF ST,,,,,,
111 44TH ST,,,,,,
111 45TH ST,,,,,,
111 47TH ST,,,,,,
111 HONEYCRISP LN,,,,,,
"111 Sheridan Street, Pittsburgh","Naushin A. Udyawar, MD",45th St,,40.4790076,-79.97099299999999,broad_filled
"111 Sheridan Street, Pittsburgh","Jonathan Michael Weiss, MD",45th St,,40.4790076,-79.97099299999999,broad_filled
"111 Sheridan Street, Pittsburgh",Naushin Ahmed Udyawar,45th St,,40.4790076,-79.97099299999999,broad_filled
"111 Sheridan Street, Pittsburgh",Lynn Reid,45th St,,40.4790076,-79.97099299999999,broad_filled
"111 Sheridan Street, Pittsburgh","Elaine P Boron, DO",45th St,5.0,40.4790076,-79.97099299999999,broad_filled
"111 Sheridan Street, Pittsburgh","Emily M. Kosty, PA-C",45th St,,40.4790076,-79.97099299999999,broad_filled
"111 Sheridan Street, Pittsburgh","Sarah B. Larkin, MD",45th St,5.0,40.47900120000001,-79.9710132,broad_filled
"111 Sheridan Street, Pittsburgh","Henry A. Bakkila, MD",45th St,,40.47900120000001,-79.9710132,broad_filled
"111 Sheridan Street, Pittsburgh",Volk Christine L,45th St,5.0,40.4790017,-79.97100089999999,broad_filled
"111 Sheridan Street, Pittsburgh","Amy J. DiPlacido, MD",45th St,5.0,40.4790017,-79.97100089999999,broad_filled
"111 Sheridan Street, Pittsburgh",Renaissance Family Practice-UPMC,45th St,2.9,40.4790017,-79.97100089999999,broad_filled
"111 Sheridan Street, Millvale","Dr. Robert L. Carrell, MD",45th St,3.7,40.4790017,-79.97100089999999,broad_filled
112 35TH ST,FleetPride Service Center,34th St,4.7,40.4645868,-79.9685259,broad_filled
112 35TH ST,FleetPride,34th St,1.0,40.46455539999999,-79.9685212,broad_filled
112 44TH ST,,,,,,
112 57TH ST,,,,,,
"112 East Sherman Street, Pittsburgh",FracTracker Alliance,47th St,,40.4797979,-79.9713549,broad_filled
"112 East Sherman Street, Millvale",New Sun Rising,47th St,4.7,40.4797979,-79.9713549,broad_filled
"112 East Sherman Street, Millvale",Millvale Food + Energy Hub,47th St,4.8,40.4799452,-79.9713307,broad_filled
"112 Lincoln Avenue, Pittsburgh",GPSA INC,46th St,4.5,40.478895,-79.96869199999999,broad_filled
113 42ND ST,,,,,,
113 43RD HALF ST,,,,,,
113 43RD ST,,,,,,
113 44TH ST,,,,,,
113 45TH ST,,,,,,
113 47TH ST,,,,,,
113 51ST ST,,,,,,
113 MCCANDLESS AVE,,,,,,
114 41ST ST,,,,,,
114 43RD HALF ST,,,,,,
114 43RD ST,,,,,,
114 44TH ST,,,,,,
"114 Grant Avenue, Pittsburgh",Grant Bar Inc,44th St,4.5,40.4782667,-79.9697429,broad_filled
115 1/2 42ND ST,,,,,,
115 1/2 44TH ST,,,,,,
115 34TH ST,,,,,,
115 41ST ST,Bay 41,butler st,3.5,40.47160409999999,-79.9642964,consolidated
115 41ST ST,Fort Willow Developers,butler st,3.0,40.4714289,-79.96377269999999,consolidated
115 41ST ST,Lawrenceville Farmers Market,butler st,4.8,40.4714793,-79.9638593,consolidated
115 42ND ST,,,,,,
115 44TH ST,,,,,,
115 45TH ST,,,,,,
115 53RD ST,,,,,,
115 BANNER WAY,,,,,,
"115 Colton Street, Pittsburgh",Junk Magician,55th st,5.0,40.4821865,-79.9764977,consolidated
115 HONEYCRISP LN,,,,,,
115 LOCARNA WAY,,,,,,
115 MCCANDLESS AVE,,,,,,
"115 Sedgwick Street, Pittsburgh","Telephone of the Wind, Millvale",53rd St,5.0,40.4809858,-79.9737786,broad_filled
116 34TH ST,Strip Self Storage,34th St,4.3,40.4632423,-79.9694943,broad_filled
116 41ST ST,,,,,,
116 43RD ST,,,,,,
116 44TH ST,,,,,,
117 42ND ST,,,,,,
117 43RD ST,,,,,,
117 44TH ST,,,,,,
117 47TH ST,,,,,,
117 53RD ST,,,,,,
117 BANNER WAY,,,,,,
117 MCCANDLESS AVE,,,,,,
118 41ST ST,,,,,,
118 42ND ST,,,,,,
118 43RD HALF ST,,,,,,
118 43RD ST,,,,,,
118 44TH ST,,,,,,
118 45TH ST,,,,,,
118 52ND ST,,,,,,
119 40TH ST,,,,,,
119 41ST ST,Rainbow Row,butler st,4.3,40.471287,-79.9638069,consolidated
119 42ND ST,,,,,,
119 43RD ST,,,,,,
119 44TH ST,,,,,,
119 47TH ST,,,,,,
119 51ST ST,,,,,,
119 53RD ST,,,,,,
119 BANNER WAY,,,,,,
119 HONEYCRISP LN,,,,,,
119 MCCANDLESS AVE,,,,,,
12 MCCANDLESS AVE,,,,,,
120 41ST ST,,,,,,
120 43RD ST,,,,,,
120 44TH ST,,,,,,
120 45TH ST,,,,,,
120 BANNER WAY,Frannies,butler st,,40.471594,-79.96325809999999,consolidated
120 LOCARNA WAY,,,,,,
121 40TH ST,,,,,,
121 41ST ST,,,,,,
121 42ND ST,,,,,,
121 43RD ST,,,,,,
121 44TH ST,,,,,,
121 45TH ST,,,,,,
121 47TH ST,,,,,,
121 53RD ST,,,,,,
121 BANNER WAY,,,,,,
121 LOCARNA WAY,,,,,,
121 MCCANDLESS AVE,,,,,,
122 41ST ST,,,,,,
122 42ND ST,,,,,,
122 43RD ST,,,,,,
122 45TH ST,,,,,,
"122 Butler Street, Pittsburgh",Mr. Smalls Recording and Mastering,48th St,4.6,40.48032020000001,-79.972236,broad_filled
"122 Butler Street, Millvale",Meals On Wheels,48th St,,40.4802943,-79.9724359,broad_filled
"122 Butler Street, Millvale",Millvale United Methodist Church,48th St,,40.480366,-79.9721983,broad_filled
122 LOCARNA WAY,,,,,,
123 1/2 42ND ST,,,,,,
123 36TH ST,Cranberry Plaza II LLC,penn ave,,40.4671374,-79.9669826,consolidated
123 36TH ST,"Wilson-McGinley, Inc.",34th st,4.1,40.4663916,-79.967383,consolidated
123 40TH ST,,,,,,
123 41ST ST,,,,,,
123 42ND ST,,,,,,
123 43RD ST,,,,,,
123 45TH ST,,,,,,
123 53RD ST,,,,,,
123 BANNER WAY,,,,,,
"123 Lincoln Avenue, Millvale",Family Dollar,45th St,3.6,40.47889670000001,-79.9697668,broad_filled
123 MCCANDLESS AVE,,,,,,
"123 North Avenue #1, Pittsburgh",Sperling Family Funeral Services,52nd st,,40.4804767,-79.9757011,consolidated
"123 North Avenue, Millvale",Hahn Funeral Home & Cremation Services Inc,52nd st,5.0,40.4804767,-79.9757011,consolidated
124 41ST ST,,,,,,
124 42ND ST,,,,,,
124 42ND ST UNIT 1,,,,,,
124 43RD ST,,,,,,
124 45TH ST,,,,,,
124 46TH ST,,,,,,
"124 Grant Avenue, Millvale",Subway,44th St,4.2,40.4785009,-79.97008439999999,broad_filled
124 LOCARNA WAY,,,,,,
125 40TH ST,,,,,,
125 42ND ST,,,,,,
125 43RD ST,,,,,,
125 45TH ST,,,,,,
125 51ST ST,,,,,,
125 BANNER WAY,,,,,,
125 MCCANDLESS AVE,,,,,,
126 1/2 45TH ST,,,,,,
126 41ST ST,,,,,,
126 43RD ST,,,,,,
126 45TH ST,,,,,,
126 BANNER WAY,,,,,,
126 LOCARNA WAY,,,,,,
127 1/2 ALMOND WAY,,,,,,
127 1/2 BANNER WAY,,,,,,
127 40TH ST,,,,,,
127 42ND ST,,,,,,
127 43RD ST,,,,,,
127 44TH ST,,,,,,
127 45TH ST,,,,,,
127 46TH ST,,,,,,
127 ALMOND WAY,,,,,,
127 BANNER WAY,,,,,,
127 HONEYCRISP LN,,,,,,
127 MCCANDLESS AVE,,,,,,
128 1/2 43RD ST,,,,,,
128 41ST ST,,,,,,
128 42ND ST,,,,,,
128 43RD ST,,,,,,
128 45TH ST,,,,,,
128 BANNER WAY,,,,,,
128 LOCARNA WAY,,,,,,
129 39TH ST,,,,,,
129 41ST ST,,,,,,
129 42ND ST,,,,,,
129 44TH ST,,,,,,
129 45TH ST,,,,,,
129 46TH ST,,,,,,
129 BANNER WAY,,,,,,
129 HOME ST,,,,,,
"129 Lincoln Avenue, Pittsburgh",ACE Cash Express,44th St,4.9,40.47867420000001,-79.9699392,broad_filled
"129 Lincoln Avenue, Millvale",Fine Wine & Good Spirits #223,44th St,4.3,40.478655,-79.9698852,broad_filled
"129 Lincoln Avenue, Swissvale",MoneyGram,44th St,4.0,40.4785906,-79.97001910000002,broad_filled
129 LOCARNA WAY,,,,,,
129 MCCANDLESS AVE,,,,,,
130 1/2 BANNER WAY,,,,,,
130 41ST ST,,,,,,
130 43RD ST,,,,,,
130 44TH ST,,,,,,
130 45TH ST,,,,,,
130 46TH ST,,,,,,
130 56TH ST,,,,,,
130 BANNER WAY,,,,,,
130 HOME ST,,,,,,
131 41ST ST,,,,,,
131 42ND ST,,,,,,
131 43RD ST,,,,,,
131 44TH ST,,,,,,
131 45TH ST,,,,,,
131 46TH ST,,,,,,
131 51ST ST,,,,,,
131 55TH ST,,,,,,
131 BANNER WAY,,,,,,
131 HOLLY WAY,,,,,,
131 HOME ST,,,,,,
131 HONEYCRISP LN,,,,,,
132 41ST ST,,,,,,
132 42ND ST,,,,,,
132 43RD ST,,,,,,
132 44TH ST,,,,,,
132 45TH ST,,,,,,
132 46TH ST,,,,,,
132 BANNER WAY,,,,,,
"132 Howard Street, Millvale","Blackburn, Vint R, Md",52nd st,5.0,40.480582,-79.97556,consolidated
133 42ND ST,,,,,,
133 43RD ST,,,,,,
133 44TH ST,,,,,,
133 45TH ST,,,,,,
133 46TH ST,,,,,,
133 HOME ST,,,,,,
134 1/2 44TH ST,,,,,,
134 41ST ST,,,,,,
134 42ND ST,,,,,,
134 43RD HALF ST,,,,,,
134 43RD ST,,,,,,
134 44TH ST,,,,,,
134 45TH ST,,,,,,
134 55TH ST,,,,,,
134 56TH ST,,,,,,
134 BANNER WAY,,,,,,
134 HOME ST,,,,,,
134 LOCARNA WAY,,,,,,
135 40TH ST,,,,,,
135 41ST ST,,,,,,
135 42ND ST,,,,,,
135 43RD ST,,,,,,
135 44TH ST,,,,,,
135 46TH ST,,,,,,
135 51ST ST,,,,,,
135 55TH ST,,,,,,
135 ALMOND WAY,Whitey's Mobile Wash,penn ave,4.8,40.4708755,-79.96409489999999,consolidated
135 BANNER WAY,,,,,,
135 HOME ST,,,,,,
135 HONEYCRISP LN,,,,,,
136 1/2 44TH ST,,,,,,
136 41ST ST,,,,,,
136 42ND ST,,,,,,
136 43RD HALF ST,,,,,,
136 43RD ST,,,,,,
136 44TH ST,,,,,,
136 55TH ST,,,,,,
137 1/2 46TH ST,,,,,,
137 41ST ST,Iron City Rinzai Pittsburgh Zen Practice Group,butler st,,40.4710408,-79.96323629999999,consolidated
137 41ST ST,Stillpoint - Soto Zen,penn ave,4.0,40.47102719999999,-79.9632428,consolidated
137 42ND ST,,,,,,
137 43RD ST,,,,,,
137 44TH ST,,,,,,
137 46TH ST,,,,,,
137 51ST ST,,,,,,
137 BANNER WAY,,,,,,
137 HOME ST,,,,,,
137 MCCANDLESS AVE,,,,,,
138 1/2 41ST ST,,,,,,
138 1/4 41ST ST,,,,,,
138 41ST ST,,,,,,
138 42ND ST,,,,,,
138 43RD ST,,,,,,
138 44TH ST,,,,,,
138 45TH ST,,,,,,
138 46TH ST,,,,,,
138 47TH ST,,,,,,
138 56TH ST,,,,,,
138 COTTON WAY,,,,,,
138 HOME ST,,,,,,
139 41ST ST,,,,,,
139 42ND ST,,,,,,
139 44TH ST,,,,,,
139 45TH ST,,,,,,
139 46TH ST,,,,,,
139 55TH ST,,,,,,
139 COTTON WAY,,,,,,
139 HOME ST,,,,,,
139 HONEYCRISP LN,,,,,,
"139 Howard Street, Millvale",Smokeys Tavern Inc,mccandless ave,4.4,40.4809039,-79.9754387,consolidated
139 MCCANDLESS AVE,,,,,,
"14 Sedgwick Street, Pittsburgh","American National Skyline, Inc. of Pittsburgh",51st st,,40.4796024,-79.9743143,consolidated
140 41ST ST,,,,,,
140 42ND ST,,,,,,
140 43RD ST,,,,,,
140 44TH ST,,,,,,
140 46TH ST,Precise Grinding,butler st,,40.47408610000001,-79.9609721,bounding_only
140 47TH ST,,,,,,
140 BANNER WAY,,,,,,
140 HOME ST,,,,,,
"140 North Avenue, Millvale",Vecenie's Distributing Co,mccandless ave,4.9,40.4807191,-79.97494859999999,consolidated
141 41ST ST,Catalyst Lofts,butler st,4.5,40.4708499,-79.9626619,consolidated
141 41ST ST UNIT 101,,,,,,
141 41ST ST UNIT 102,,,,,,
141 41ST ST UNIT 103,,,,,,
141 41ST ST UNIT 104,,,,,,
141 41ST ST UNIT 105,,,,,,
141 41ST ST UNIT 106,,,,,,
141 41ST ST UNIT 201,,,,,,
141 41ST ST UNIT 202,,,,,,
141 41ST ST UNIT 203,,,,,,
141 41ST ST UNIT 204,,,,,,
141 41ST ST UNIT 205,,,,,,
141 41ST ST UNIT 206,,,,,,
141 41ST ST UNIT 301,,,,,,
141 41ST ST UNIT 302,,,,,,
141 41ST ST UNIT 303,,,,,,
141 41ST ST UNIT 304,,,,,,
141 41ST ST UNIT 305,,,,,,
141 41ST ST UNIT 306,,,,,,
141 41ST ST UNIT 307,,,,,,
141 41ST ST UNIT 308,,,,,,
141 41ST ST UNIT C1,,,,,,
141 41ST ST UNIT C2,,,,,,
141 41ST ST UNIT C3,,,,,,
141 41ST ST UNIT C4,,,,,,
141 42ND ST,,,,,,
141 43RD ST,,,,,,
141 45TH ST,,,,,,
141 COTTON WAY,,,,,,
141 HOME ST,,,,,,
"141 Howard Street, Pittsburgh",McGrath Medical,mccandless ave,,40.4809356,-79.975306,consolidated
"141 Howard Street, Pittsburgh",Civil Engineering Design & Consulting,mccandless ave,,40.4809356,-79.975306,consolidated
141 MCCANDLESS AVE,,,,,,
142 42ND ST,,,,,,
142 43RD ST,,,,,,
142 44TH ST,,,,,,
142 45TH ST,,,,,,
142 46TH ST,,,,,,
142 47TH ST,,,,,,
142 55TH ST,,,,,,
142 56TH ST,,,,,,
142 ALMOND WAY,,,,,,
142 BANNER WAY,,,,,,
"142 Grant Avenue FL 2, Millvale",Maude's Paperwing Gallery,45th St,4.9,40.4786674,-79.9706676,broad_filled
"142 Grant Avenue, Millvale",Harold's Haunt,44th St,4.8,40.478621,-79.9706763,broad_filled
142 HOME ST,,,,,,
143 42ND ST,,,,,,
143 43RD ST,,,,,,
143 45TH ST,,,,,,
143 46TH ST,,,,,,
143 51ST ST,,,,,,
143 55TH ST,,,,,,
143 COTTON WAY,,,,,,
143 HOME ST,,,,,,
"143 Howard Street, Pittsburgh",Somers Creative Group,mccandless ave,,40.4809712,-79.9752638,consolidated
144 43RD HALF ST,,,,,,
144 43RD ST,,,,,,
144 44TH ST,,,,,,
144 45TH ST,,,,,,
144 46TH ST,Jersey Chrome Plating Co,butler st,4.3,40.4739961,-79.9608299,bounding_only
144 47TH ST,,,,,,
144 55TH ST,,,,,,
144 ALMOND WAY,,,,,,
144 COTTON WAY,,,,,,
144 HOME ST,,,,,,
145 40TH ST,,,,,,
145 42ND ST,,,,,,
145 43RD ST,,,,,,
145 44TH ST,Mauney Doty L,butler st,3.7,40.47284570000001,-79.9612628,bounding_only
145 44TH ST,Cornell William F,butler st,5.0,40.47284570000001,-79.9612628,consolidated
145 44TH ST,O'Hara Terry,butler st,5.0,40.47284570000001,-79.9612628,consolidated
145 44TH ST,"Renee Jennings, MA, MSW, LCSW",butler st,5.0,40.4728078,-79.9613218,bounding_only
145 44TH ST,"Daniel Goldstein, LCSW",butler st,,40.47280420000001,-79.9613167,bounding_only
145 44TH ST,Renee Jennings,butler st,,40.47280420000001,-79.9613167,bounding_only
145 45TH ST,,,,,,
145 46TH ST,,,,,,
145 HOME ST,,,,,,
146 43RD HALF ST,,,,,,
146 44TH ST,Cattivo,butler st,4.5,40.4725388,-79.9616418,consolidated
146 44TH ST,ATM,butler st,,40.4725156,-79.9616872,consolidated
146 45TH ST,,,,,,
146 47TH ST,,,,,,
146 56TH ST,,,,,,
146 ALMOND WAY,,,,,,
146 COTTON WAY,,,,,,
"146 Grant Avenue, Pittsburgh",Goosehead Insurance - Scott Davis,45th St,5.0,40.47877159999999,-79.97076349999999,broad_filled
146 HOME ST,,,,,,
146 LOCARNA WAY,,,,,,
147 1/2 45TH ST,,,,,,
147 39TH ST,Arsenal 201,penn ave,4.3,40.468942,-79.96468159999999,consolidated
147 40TH ST,,,,,,
147 43RD ST,,,,,,
147 44TH ST,,,,,,
147 45TH ST,,,,,,
147 46TH ST,,,,,,
147 HOME ST,,,,,,
147 LOCARNA WAY,,,,,,
148 41ST ST,,,,,,
148 43RD HALF ST,,,,,,
148 44TH ST,,,,,,
148 46TH ST,,,,,,
148 47TH ST,,,,,,
148 ALMOND WAY,,,,,,
148 HOLLY WAY,,,,,,
148 HOME ST,,,,,,
149 43RD HALF ST,,,,,,
149 43RD ST,,,,,,
"149 43rd Street #2, Pittsburgh",KShu Media - Video Editing and Photo Editing,butler st,5.0,40.4718503,-79.9617377,bounding_only
149 44TH ST,,,,,,
149 45TH ST,,,,,,
149 51ST ST,,,,,,
"149 Grant Avenue, Millvale",Tri State Home Care Inc.,44th St,3.5,40.4785979,-79.9709432,broad_filled
149 HOME ST,,,,,,
"15 Hays Street, Pittsburgh",Terry Hohman Painting,48th St,5.0,40.479365,-79.972893,broad_filled
150 43RD HALF ST,,,,,,
150 43RD ST,,,,,,
150 43RD ST APT 1,,,,,,
150 43RD ST APT 2,,,,,,
150 44TH ST,,,,,,
150 47TH ST,,,,,,
150 54TH ST,,,,,,
150 54TH ST,,,,,,
150 54TH ST,,,,,,
150 A 44TH ST,,,,,,
150 A 44TH ST APT 1,,,,,,
150 A 44TH ST APT 2,,,,,,
150 ALMOND WAY,,,,,,
150 HOME ST,,,,,,
151 38TH ST,,,,,,
151 43RD HALF ST,,,,,,
151 43RD ST,,,,,,
151 44TH ST,,,,,,
151 45TH ST,,,,,,
151 HOME ST,,,,,,
152 43RD HALF ST,,,,,,
152 43RD ST,,,,,,
152 43RD ST APT 1,,,,,,
152 43RD ST APT 2,,,,,,
152 44TH ST,,,,,,
152 45TH ST,,,,,,
152 47TH ST,,,,,,
152 ALMOND WAY,,,,,,
152 HOME ST,,,,,,
153 38TH ST,,,,,,
153 43RD HALF ST,,,,,,
153 43RD ST,,,,,,
153 44TH ST,,,,,,
153 45TH ST,,,,,,
154 1/2 45TH ST,,,,,,
154 38TH ST,,,,,,
154 40TH ST,,,,,,
154 43RD ST,,,,,,
154 43RD ST APT 1,,,,,,
154 43RD ST APT 2,,,,,,
154 44TH ST,,,,,,
154 45TH ST,,,,,,
154 HOME ST,,,,,,
155 38TH ST,,,,,,
155 41ST ST,,,,,,
155 42ND ST,,,,,,
155 43RD HALF ST,,,,,,
155 43RD ST,,,,,,
155 44TH ST,,,,,,
155 45TH ST,,,,,,
155 51ST ST,,,,,,
155 55TH ST,,,,,,
155 ALMOND WAY,,,,,,
156 38TH ST,,,,,,
156 41ST ST,,,,,,
156 43RD ST,,,,,,
156 43RD ST APT 1,,,,,,
156 43RD ST APT 2,,,,,,
156 44TH ST,,,,,,
156 45TH ST FL 1,,,,,,
156 45TH ST FL 2,,,,,,
156 56TH ST,,,,,,
156 HOME ST,,,,,,
157 38TH ST,,,,,,
157 41ST ST,,,,,,
157 42ND ST,,,,,,
157 43RD ST,,,,,,
157 44TH ST,,,,,,
157 45TH ST,,,,,,
157 49TH ST,,,,,,
157 ALMOND WAY,,,,,,
157 BANNER WAY,,,,,,
157 LOCARNA WAY,,,,,,
158 38TH ST,,,,,,
158 41ST ST,Pittsburgh Plant Co.,penn ave,4.8,40.470409,-79.9626773,consolidated
158 43RD HALF ST,,,,,,
158 44TH ST,,,,,,
158 45TH ST,,,,,,
158 48TH ST,,,,,,
158 ALMOND WAY,,,,,,
158 BANNER WAY,,,,,,
158 HOME ST,,,,,,
158 LOCARNA WAY,,,,,,
159 1/2 38TH ST,,,,,,
159 1/2 42ND ST,,,,,,
159 38TH ST,,,,,,
159 41ST ST,,,,,,
159 42ND ST,,,,,,
159 43RD ST,,,,,,
159 44TH ST,,,,,,
159 45TH ST,,,,,,
159 49TH ST,,,,,,
159 55TH ST,,,,,,
159 BANNER WAY,,,,,,
159 LOCARNA WAY,,,,,,
16 57TH ST,,,,,,
160 1/2 38TH ST,,,,,,
160 38TH ST,,,,,,
160 39TH ST,,,,,,
160 41ST ST,,,,,,
160 42ND ST,,,,,,
160 43RD ST,,,,,,
160 44TH ST,,,,,,
160 45TH ST,,,,,,
160 52ND ST,,,,,,
160 56TH ST,,,,,,
160 ALMOND WAY,,,,,,
160 BANNER WAY,,,,,,
160 HOME ST,,,,,,
161 38TH ST,,,,,,
161 41ST ST,,,,,,
161 42ND ST,,,,,,
161 43RD ST,,,,,,
161 44TH ST,,,,,,
161 45TH ST,,,,,,
161 51ST ST,,,,,,
161 ALMOND WAY,,,,,,
161 COTTON WAY,,,,,,
162 1/2 38TH ST,,,,,,
162 1/2 39TH ST,,,,,,
162 1/2 LOCARNA WAY,,,,,,
162 37TH ST,,,,,,
162 38TH ST,,,,,,
162 39TH ST,,,,,,
162 41ST ST,,,,,,
162 42ND ST,,,,,,
162 42ND ST APT 1,,,,,,
162 42ND ST APT 2,,,,,,
162 44TH ST,,,,,,
162 45TH ST,,,,,,
162 ALMOND WAY,,,,,,
162 BANNER WAY,,,,,,
162 HOME ST,,,,,,
162 LOCARNA WAY,,,,,,
163 38TH ST,,,,,,
163 40TH ST,,,,,,
163 41ST ST,,,,,,
163 42ND ST,,,,,,
163 43RD ST,,,,,,
163 44TH ST,,,,,,
163 45TH ST,,,,,,
163 55TH ST,,,,,,
163 ALMOND WAY,,,,,,
163 COTTON WAY,,,,,,
163 HOME ST,,,,,,
164 1/2 38TH ST,,,,,,
164 37TH ST,,,,,,
164 38TH ST,,,,,,
164 39TH ST,Bill Ballon Automotive Independent BMW Automobile Specialists,penn ave,4.1,40.4684204,-79.96502129999999,consolidated
164 42ND ST,,,,,,
164 43RD ST,,,,,,
164 44TH ST,,,,,,
164 45TH ST,,,,,,
164 56TH ST,,,,,,
164 ALMOND WAY,,,,,,
164 HOME ST,,,,,,
164 LODI WAY,,,,,,
165 38TH ST,,,,,,
165 42ND ST,,,,,,
165 43RD HALF ST,,,,,,
165 43RD ST,,,,,,
165 44TH ST,,,,,,
165 45TH ST,,,,,,
165 46TH ST,,,,,,
165 ALMOND WAY,,,,,,
165 COTTON WAY,,,,,,
165 HOME ST,,,,,,
166 1/2 38TH ST,,,,,,
166 37TH ST,,,,,,
166 38TH ST,,,,,,
166 39TH ST,,,,,,
166 41ST ST,,,,,,
166 42ND ST,,,,,,
166 43RD ST,,,,,,
166 45TH ST,,,,,,
166 46TH ST,,,,,,
166 ALMOND WAY,Tom Savini Mural,penn ave,,40.4697972,-79.9629253,consolidated
166 BANNER WAY,,,,,,
166 HOME ST,,,,,,
166 LODI WAY,,,,,,
167 1/2 46TH ST,,,,,,
167 38TH ST,,,,,,
167 41ST ST,,,,,,
167 42ND ST,,,,,,
167 43RD HALF ST,,,,,,
167 44TH ST,,,,,,
167 45TH ST,,,,,,
167 46TH ST,,,,,,
167 48TH ST,,,,,,
167 51ST ST,,,,,,
167 ALMOND WAY,,,,,,
167 BANNER WAY,,,,,,
167 HOME ST,,,,,,
168 37TH ST,,,,,,
168 38TH ST,,,,,,
168 39TH ST,,,,,,
168 41ST ST,,,,,,
168 42ND ST,,,,,,
168 43RD ST,,,,,,
168 45TH ST,,,,,,
168 46TH ST,,,,,,
168 47TH ST,,,,,,
168 56TH ST,,,,,,
168 BANNER WAY,,,,,,
168 HOME ST,,,,,,
168 LODI WAY,,,,,,
169 38TH ST,,,,,,
169 41ST ST,,,,,,
169 43RD ST,,,,,,
169 44TH ST,,,,,,
169 45TH ST,,,,,,
169 46TH ST,,,,,,
169 ALMOND WAY,,,,,,
169 BANNER WAY,,,,,,
169 HOME ST,,,,,,
"17 Johnson Street, Millvale",Hinds Site,mccandless ave,5.0,40.4810982,-79.97891659999999,consolidated
170 1/2 LOCARNA WAY,,,,,,
170 37TH ST,,,,,,
170 39TH ST,,,,,,
170 41ST ST,,,,,,
170 42ND ST,,,,,,
170 43RD ST,,,,,,
170 45TH ST,,,,,,
170 46TH ST,,,,,,
170 47TH ST,,,,,,
170 49TH ST,,,,,,
170 HOME ST,,,,,,
170 LOCARNA WAY,,,,,,
170 LODI WAY,,,,,,
171 36TH ST,,,,,,
171 42ND ST,,,,,,
171 44TH ST,,,,,,
171 45TH ST,,,,,,
171 46TH ST,,,,,,
171 51ST ST,,,,,,
171 ALMOND WAY,,,,,,
171 BANNER WAY,,,,,,
171 HOME ST,,,,,,
172 38TH ST,,,,,,
172 39TH ST,,,,,,
172 41ST ST,,,,,,
172 43RD ST,,,,,,
172 44TH ST,,,,,,
172 45TH ST,,,,,,
172 46TH ST,,,,,,
172 47TH ST,,,,,,
172 49TH ST,,,,,,
172 51ST ST,,,,,,
172 COTTON WAY,,,,,,
172 HOME ST,,,,,,
172 LODI WAY,,,,,,
173 36TH ST,,,,,,
173 38TH ST,,,,,,
173 42ND ST,,,,,,
173 43RD ST,,,,,,
173 44TH ST,,,,,,
173 46TH ST,,,,,,
173 51ST ST,,,,,,
173 A 45TH ST,,,,,,
173 B 45TH ST,,,,,,
173 BANNER WAY,,,,,,
173 C 45TH ST,,,,,,
173 D 45TH ST,,,,,,
173 HOME ST,,,,,,
174 38TH ST,,,,,,
174 39TH ST,,,,,,
174 41ST ST,,,,,,
174 41ST ST APT 1,,,,,,
174 41ST ST APT 2,,,,,,
174 42ND ST,,,,,,
174 43RD ST,,,,,,
174 44TH ST,,,,,,
174 45TH ST,,,,,,
174 46TH ST,,,,,,
174 47TH ST,,,,,,
174 49TH ST,,,,,,
174 51ST ST,,,,,,
174 A COTTON WAY,,,,,,
174 B COTTON WAY,,,,,,
174 C COTTON WAY,,,,,,
174 D COTTON WAY,,,,,,
174 E COTTON WAY,,,,,,
174 HOME ST,,,,,,
174 LODI WAY,,,,,,
175 36TH ST,,,,,,
175 37TH ST,,,,,,
175 38TH ST,,,,,,
175 41ST ST,,,,,,
175 42ND ST,,,,,,
175 43RD HALF ST,,,,,,
175 44TH ST,,,,,,
175 45TH ST,,,,,,
175 46TH ST,,,,,,
175 48TH ST,,,,,,
175 ALMOND WAY,,,,,,
175 BANNER WAY,,,,,,
176 1/2 39TH ST,,,,,,
176 1/2 45TH ST,,,,,,
176 1/2 LOCARNA WAY,,,,,,
176 38TH ST,,,,,,
176 39TH ST,,,,,,
176 41ST ST,,,,,,
176 41ST ST APT 1,,,,,,
176 41ST ST APT 2,,,,,,
176 42ND ST,,,,,,
176 43RD ST,,,,,,
176 44TH ST,,,,,,
176 45TH ST,,,,,,
176 46TH ST,,,,,,
176 47TH ST,,,,,,
176 49TH ST,,,,,,
176 HOME ST,,,,,,
176 LODI WAY,,,,,,
177 1/2 HOME ST,,,,,,
177 36TH ST,,,,,,
177 38TH ST,,,,,,
177 40TH ST,TRYP by Wyndham Pittsburgh/Lawrenceville Boutique Hotel,penn ave,3.9,40.4695202,-79.9627999,consolidated
177 40TH ST,Coffee at Brick Shop,penn ave,3.0,40.4697099,-79.9627665,consolidated
177 40TH ST,Over Eden,penn ave,4.0,40.469456,-79.9629301,consolidated
177 40TH ST,Brick Shop,penn ave,4.3,40.46934479999999,-79.9628448,consolidated
177 41ST ST,,,,,,
177 42ND ST,,,,,,
177 43RD HALF ST,,,,,,
177 43RD ST,,,,,,
177 45TH ST,,,,,,
177 46TH ST,,,,,,
177 48TH ST,,,,,,
177 A 43RD HALF ST,,,,,,
177 ALMOND WAY,,,,,,
177 BANNER WAY,,,,,,
177 HOME ST,,,,,,
178 38TH ST,,,,,,
178 42ND ST,,,,,,
178 43RD HALF ST,,,,,,
178 43RD ST,,,,,,
178 43RD ST APT 1,,,,,,
178 43RD ST APT 2,,,,,,
178 43RD ST APT 3,,,,,,
178 44TH ST,,,,,,
178 45TH ST,,,,,,
178 46TH ST,,,,,,
178 49TH ST,,,,,,
178 HOME ST,,,,,,
"178 Pearl Street, Pittsburgh",Nico's Recovery Room,liberty ave,4.3,40.4636488,-79.9489514,consolidated
179 1/2 43RD HALF ST,,,,,,
179 1/2 43RD ST,,,,,,
179 36TH ST,,,,,,
179 38TH ST,,,,,,
179 43RD HALF ST,,,,,,
179 43RD ST,,,,,,
179 45TH ST,,,,,,
179 46TH ST,,,,,,
179 48TH ST,,,,,,
179 51ST ST,,,,,,
179 ALMOND WAY,,,,,,
179 HOME ST,,,,,,
179 LODI WAY,,,,,,
180 1/2 44TH ST,,,,,,
180 1/2 46TH ST,,,,,,
180 38TH ST,,,,,,
180 39TH ST,,,,,,
180 41ST ST,,,,,,
180 44TH ST,,,,,,
180 45TH ST,,,,,,
180 46TH ST,,,,,,
180 47TH ST,,,,,,
180 49TH ST,,,,,,
180 51ST ST,,,,,,
180 HOME ST,,,,,,
181 38TH ST,,,,,,
181 39TH ST,,,,,,
181 42ND ST,Headstorm,butler st,5.0,40.47066969999999,-79.9611625,bounding_only
181 43RD ST,Cork Harbour Pub,butler st,4.7,40.4712592,-79.96087229999999,bounding_only
181 44TH ST,,,,,,
181 45TH ST,,,,,,
181 46TH ST,,,,,,
181 47TH ST,,,,,,
181 51ST ST,,,,,,
181 BANNER WAY,,,,,,
181 HOME ST,,,,,,
181 LODI WAY,,,,,,
"1812 300 39th Street b, 300 39th Street, Pittsburgh",Pittsburgh Event Lighting,penn ave,4.4,40.4650852,-79.9609206,consolidated
182 1/2 39TH ST,,,,,,
182 1/2 45TH ST,,,,,,
182 34TH ST,,,,,,
182 36TH ST,,,,,,
182 39TH ST,,,,,,
182 41ST ST,,,,,,
182 42ND ST,,,,,,
182 44TH ST,,,,,,
182 45TH ST,,,,,,
182 46TH ST,,,,,,
182 47TH ST,,,,,,
182 49TH ST,,,,,,
182 51ST ST,,,,,,
182 HOME ST,,,,,,
183 34TH ST,,,,,,
183 35TH ST,Jeremy Raymer Outdoor Art Gallery,penn ave,4.9,40.4643384,-79.9670029,consolidated
183 38TH ST,,,,,,
183 43RD ST,River City Growers,butler st,,40.4712137,-79.9608216,bounding_only
183 44TH ST,,,,,,
183 45TH ST,,,,,,
183 46TH ST,,,,,,
183 47TH ST,,,,,,
183 ALMOND WAY,,,,,,
183 BANNER WAY,,,,,,
183 HOME ST,,,,,,
183 LODI WAY,,,,,,
184 1/2 43RD HALF ST,,,,,,
184 34TH ST,,,,,,
184 36TH ST,,,,,,
184 39TH ST,,,,,,
184 41ST ST,,,,,,
184 43RD HALF ST,,,,,,
184 44TH ST,,,,,,
184 45TH ST,,,,,,
184 46TH ST,,,,,,
184 47TH ST,,,,,,
184 49TH ST,,,,,,
184 HOME ST,,,,,,
185 1/2 34TH ST,,,,,,
185 1/2 42ND ST,,,,,,
185 1/2 HOME ST,,,,,,
185 35TH ST,,,,,,
185 39TH ST,,,,,,
185 39TH ST APT 101,,,,,,
185 39TH ST APT 102,,,,,,
185 39TH ST APT 103,,,,,,
185 39TH ST APT 104,,,,,,
185 39TH ST APT 105,,,,,,
185 39TH ST APT 106,,,,,,
185 39TH ST APT 107,,,,,,
185 39TH ST APT 108,,,,,,
185 39TH ST APT 109,,,,,,
185 39TH ST APT 110,,,,,,
185 39TH ST APT 111,,,,,,
185 39TH ST APT 112,,,,,,
185 39TH ST APT 201,,,,,,
185 39TH ST APT 202,,,,,,
185 39TH ST APT 203,,,,,,
185 39TH ST APT 204,,,,,,
185 39TH ST APT 205,,,,,,
185 39TH ST APT 206,,,,,,
185 39TH ST APT 207,,,,,,
185 39TH ST APT 208,,,,,,
185 39TH ST APT 209,,,,,,
185 39TH ST APT 210,,,,,,
185 39TH ST APT 211,,,,,,
185 39TH ST APT 212,,,,,,
185 39TH ST APT 301,,,,,,
185 39TH ST APT 302,,,,,,
185 39TH ST APT 303,,,,,,
185 39TH ST APT 304,,,,,,
185 39TH ST APT 305,,,,,,
185 39TH ST APT 306,,,,,,
185 39TH ST APT 307,,,,,,
185 39TH ST APT 308,,,,,,
185 41ST ST,,,,,,
185 42ND ST,,,,,,
"185 43rd Street, Pittsburgh",Future Farms,butler st,5.0,40.47109939999999,-79.96083569999999,bounding_only
185 44TH ST,,,,,,
185 45TH ST,,,,,,
185 47TH ST,,,,,,
185 51ST ST,,,,,,
185 ALMOND WAY,,,,,,
185 BANNER WAY,,,,,,
185 HOME ST,,,,,,
185 LODI WAY,,,,,,
186 34TH ST,,,,,,
186 36TH ST,,,,,,
186 38TH ST,,,,,,
186 39TH ST,,,,,,
186 41ST ST,,,,,,
186 42ND ST,R Kyndall Development Group,penn ave,5.0,40.4704441,-79.9612604,consolidated
186 42ND ST,United States Postal Service,penn ave,3.1,40.47041979999999,-79.96120739999999,consolidated
186 42ND ST,R Kyndall Development Group,penn ave,5.0,40.4704441,-79.9612604,consolidated
186 42ND ST,United States Postal Service,penn ave,3.1,40.47041979999999,-79.96120739999999,consolidated
186 44TH ST,,,,,,
186 45TH ST,,,,,,
186 46TH ST,,,,,,
186 47TH ST,,,,,,
186 51ST ST,,,,,,
186 HOME ST,,,,,,
187 1/2 34TH ST,,,,,,
187 34TH ST,,,,,,
187 36TH ST,,,,,,
187 38TH ST,,,,,,
187 42ND ST,,,,,,
187 43RD ST,,,,,,
187 44TH ST,,,,,,
187 45TH ST,,,,,,
187 47TH ST,,,,,,
187 51ST ST,,,,,,
187 BANNER WAY,,,,,,
187 HOME ST,,,,,,
187 LOCARNA WAY,,,,,,
188 1/2 39TH ST,,,,,,
188 34TH ST,,,,,,
188 36TH ST,,,,,,
188 38TH ST,,,,,,
188 38TH ST UNIT 1,,,,,,
188 38TH ST UNIT 2,,,,,,
188 38TH ST UNIT 3,,,,,,
188 39TH ST,,,,,,
188 41ST ST,,,,,,
188 43RD HALF ST,,,,,,
188 43RD ST,Merritt Chase,butler st,,40.4707355,-79.9610699,bounding_only
"188 43rd Street #1, Pittsburgh",Bike Pittsburgh,penn ave,4.1,40.4708958,-79.9609175,consolidated
188 44TH ST,,,,,,
188 45TH ST,,,,,,
188 46TH ST,,,,,,
188 47TH ST,,,,,,
188 51ST ST,,,,,,
188 HOME ST,,,,,,
189 34TH ST,,,,,,
189 37TH ST,,,,,,
189 38TH ST,,,,,,
189 45TH ST,,,,,,
189 BANNER WAY,,,,,,
189 COTTON WAY,,,,,,
189 LOCARNA WAY,,,,,,
19 35TH ST,PeopleReady,34th St,3.1,40.4660929,-79.9705912,broad_filled
19 35TH ST,PeopleReady,34th St,3.6,40.4659911,-79.970692,broad_filled
19 35TH ST,Oak's Auto/Truck Service LLC,34th St,3.4,40.4661674,-79.9709243,broad_filled
19 35TH ST,Warehouse,34th St,5.0,40.4660929,-79.9705912,broad_filled
19 35TH ST,Perrotte Wood Finishing Co,34th st,5.0,40.4663775,-79.97024669999999,consolidated
19 35TH ST,Sugar and wax Studio,34th St,,40.4660929,-79.9705912,broad_filled
19 48TH ST,,,,,,
190 1/2 36TH ST,,,,,,
190 1/2 44TH ST,,,,,,
190 36TH ST,,,,,,
190 38TH ST,,,,,,
190 38TH ST UNIT 1,,,,,,
190 38TH ST UNIT 2,,,,,,
190 39TH ST,,,,,,
190 40TH ST,,,,,,
190 42ND ST,,,,,,
190 43RD HALF ST,,,,,,
190 43RD ST,,,,,,
190 44TH ST,,,,,,
190 46TH ST,,,,,,
190 47TH ST,,,,,,
190 49TH ST,,,,,,
190 HOME ST,,,,,,
191 38TH ST,,,,,,
191 42ND ST,,,,,,
191 51ST ST,,,,,,
191 COTTON WAY,,,,,,
192 42ND ST,,,,,,
192 43RD HALF ST,,,,,,
192 43RD ST,,,,,,
192 45TH ST,,,,,,
192 46TH ST,,,,,,
192 47TH ST,,,,,,
192 47TH ST APT 1,,,,,,
192 47TH ST APT 2,,,,,,
192 47TH ST APT 3,,,,,,
192 49TH ST,,,,,,
192 51ST ST,,,,,,
193 38TH ST,,,,,,
193 43RD ST,"George Bernard Sestric, MD",butler st,3.5,40.4708505,-79.9604617,bounding_only
193 43RD ST,"Dr. William Lamb Jr, DO",butler st,,40.4709214,-79.9604064,bounding_only
193 43RD ST,"Dr. Philip J. Cichon, MD",butler st,5.0,40.4708505,-79.96046179999999,consolidated
193 43RD ST,Greater Pittsburgh Medical Associates-UPMC,butler st,,40.4708505,-79.96046179999999,bounding_only
193 43RD ST,Shane Alexander Eikenberry,butler st,,40.4708505,-79.96046179999999,bounding_only
"193 43rd St and, Butler Street, Pittsburgh","Shane A Eikenberry, MD",butler st,5.0,40.4708505,-79.96046179999999,bounding_only
193 COTTON WAY,,,,,,
194 37TH ST,,,,,,
194 42ND ST,,,,,,
194 43RD HALF ST,,,,,,
194 45TH ST,,,,,,
195 38TH ST,,,,,,
195 COTTON WAY,,,,,,
196 36TH ST,,,,,,
196 36TH ST UNIT 1A,,,,,,
196 36TH ST UNIT 1B,,,,,,
196 36TH ST UNIT 2A,,,,,,
196 36TH ST UNIT 2B,,,,,,
196 36TH ST UNIT 2C,,,,,,
196 36TH ST UNIT 2D,,,,,,
196 36TH ST UNIT 2E,,,,,,
196 36TH ST UNIT 2F,,,,,,
196 36TH ST UNIT 2G,,,,,,
196 36TH ST UNIT 3A,,,,,,
196 36TH ST UNIT 3B,,,,,,
196 36TH ST UNIT 3C,,,,,,
196 36TH ST UNIT 3D,,,,,,
196 36TH ST UNIT 3E,,,,,,
196 36TH ST UNIT 3F,,,,,,
196 36TH ST UNIT 3G,,,,,,
196 36TH ST UNIT 3H,,,,,,
196 37TH ST,,,,,,
196 42ND ST,,,,,,
197 38TH ST,,,,,,
197 COTTON WAY,,,,,,
198 37TH ST,,,,,,
199 38TH ST,Distinctive Detailing,penn ave,4.9,40.46726,-79.96459109999999,consolidated
2 OHARA PL,,,,,,
2 OHARA PL APT 1,,,,,,
2 OHARA PL APT 2,,,,,,
2 OHARA PL APT 3,,,,,,
2 SAINT JOHN PL,,,,,,
2 SAINT JOHN PL APT 1,,,,,,
2 SAINT JOHN PL APT 2,,,,,,
2 SAINT JOHN PL APT 3,,,,,,
"2 Sedgwick Street, Pittsburgh",Krusty the Neighborhood Cat,51st st,4.6,40.4793104,-79.97457370000001,consolidated
"2 Sedgwick Street, Pittsburgh",Playground Dropout (Formerly Lumberjaxes Axe Throwing),51st st,4.9,40.4793193,-79.9745531,consolidated
"2 Sedgwick Street, Pittsburgh",Sliders Ice Curling Bar,51st st,4.5,40.4793104,-79.97457370000001,consolidated
"2 Sedgwick Street, Millvale",A519 Chocolate,51st st,5.0,40.4793104,-79.97457370000001,consolidated
20 36TH ST,Pittsburgh Foundry & Machine,34th st,3.0,40.4669845,-79.96982589999999,consolidated
20 39TH ST,Three Rivers Packaging Div. of The Cary Company,penn ave,5.0,40.46987679999999,-79.9670805,consolidated
20 48TH ST,,,,,,
200 57TH ST,,,,,,
"200 Lothrop Street, Pittsburgh",UPMC Senior Communities,penn ave,1.0,40.4657723,-79.9580991,consolidated
"200 Waterfront Drive, Pittsburgh",GAMMA Sports,36th St,4.4,40.4672393,-79.9746322,broad_filled
"201 46th Street, Pittsburgh",World War I Memorial Park,butler st,4.7,40.47285389999999,-79.95851480000002,consolidated
"201 Grant Avenue Floor 1, Millvale","Tricia R Sorg, Esquire",45th St,3.8,40.4786274,-79.97123669999999,broad_filled
202 38TH ST,Umami,penn ave,4.6,40.4666498,-79.9642252,bounding_only
202 57TH ST,,,,,,
"2023 East Homestead Street, Pittsburgh",Mt Troy United Church of Christ,49th St,3.0,40.472973,-79.98246999999999,broad_filled
203 54TH ST,,,,,,
203 FUJI CT,,,,,,
"203 Grant Avenue, Millvale",Cousins Lounge,45th St,4.6,40.47874059999999,-79.97123710000001,broad_filled
"204 37th Street, Pittsburgh",Hunger Services Network - Food Distribution Center,penn ave,5.0,40.4659896,-79.96459999999999,bounding_only
"204 37th Street #103, Pittsburgh",Meals On Wheels,penn ave,5.0,40.4658826,-79.96449559999999,consolidated
204 39TH ST,,,,,,
204 54TH ST,,,,,,
204 57TH ST,,,,,,
205 54TH ST,,,,,,
"205 Grant Avenue, Millvale",Scott's Barber Shop,45th St,4.9,40.47873,-79.97137599999999,broad_filled
"205 Lincoln Avenue, Millvale",United States Postal Service,46th St,2.4,40.4794674,-79.9707229,broad_filled
206 36TH ST,,,,,,
206 39TH ST,,,,,,
206 57TH ST,,,,,,
"206 Grant Avenue, Millvale",Steel City Salt Company,45th St,5.0,40.4790466,-79.971175,broad_filled
206 MCCANDLESS AVE,,,,,,
207 34TH ST,,,,,,
207 34TH ST APT 202,,,,,,
207 34TH ST APT 204,,,,,,
207 34TH ST APT 206,,,,,,
207 34TH ST APT 208,,,,,,
207 34TH ST APT 210,,,,,,
207 34TH ST APT 211,,,,,,
207 34TH ST APT 212,,,,,,
207 34TH ST APT 214,,,,,,
207 34TH ST APT 302,,,,,,
207 34TH ST APT 304,,,,,,
207 34TH ST APT 306,,,,,,
207 34TH ST APT 308,,,,,,
207 34TH ST APT 310,,,,,,
207 34TH ST APT 311,,,,,,
207 34TH ST APT 312,,,,,,
207 34TH ST APT 314,,,,,,
207 FUJI CT,,,,,,
208 39TH ST,,,,,,
208 55TH ST,,,,,,
208 57TH ST,,,,,,
208 FISK ST,Polish Eagles Society,penn ave,4.9,40.4689862,-79.9613179,consolidated
208 MAIN ST,Ron Donoughe,penn ave,5.0,40.4695931,-79.9607654,consolidated
210 48TH ST,,,,,,
210 57TH ST,,,,,,
210 MAIN ST,,,,,,
"2100 James Drive, Pittsburgh",Doshi Bhavank V MD,51st St,,40.4764553,-79.98153769999999,broad_filled
"2103 Highland Avenue, Pittsburgh",St Paul Cemetery,48th St,5.0,40.472154,-79.981473,broad_filled
"2107 Lonsdale Street, Pittsburgh",Reserve Athletic Association,49th St,4.8,40.4755644,-79.9810814,broad_filled
"2107 Lonsdale Street, Pittsburgh",Reserve Primary School,49th St,5.0,40.4755681,-79.98106159999999,broad_filled
211 38TH ST,,,,,,
211 42ND ST,,,,,,
211 44TH ST,,,,,,
211 52ND ST,,,,,,
211 56TH ST,,,,,,
211 FUJI CT,,,,,,
"211 Grant Avenue, Millvale",Abeille Voyante Tea Co,45th St,5.0,40.4788844,-79.9715028,broad_filled
"211 North Avenue, Millvale",Pro Towing Service,52nd St,3.0,40.4812556,-79.9749528,broad_filled
"211 Stanton Avenue, Pittsburgh",Pittsburgh Snow Removal,43rd St,4.9,40.4776209,-79.97082329999999,broad_filled
212 1/2 44TH ST,,,,,,
212 38TH ST,,,,,,
212 39TH ST,,,,,,
212 43RD ST,,,,,,
212 44TH ST,Raise Fitness,butler st,5.0,40.471189,-79.9595354,consolidated
212 44TH ST,Arsenal Bowl,penn ave,4.1,40.471189,-79.9595354,consolidated
212 45TH ST,Attack Theatre,butler st,4.5,40.4718797,-79.9591766,consolidated
212 45TH ST,Quantum Theatre,butler st,4.8,40.4716528,-79.95918549999999,consolidated
212 45TH ST,Butler Street Lofts,butler st,1.0,40.4717417,-79.95918209999999,consolidated
"212 45th Street 1st Fl - Suite 3, Pittsburgh",Mary Barensfeld Architecture,butler st,,40.4719294,-79.9591294,consolidated
212 57TH ST,,,,,,
212 MAIN ST,,,,,,
213 38TH ST,,,,,,
213 42ND ST,,,,,,
213 FISK ST,,,,,,
"213 Grant Avenue, Millvale",Millvale Community Library,45th St,4.7,40.4788536,-79.9716107,broad_filled
"213 Grant Avenue, Millvale",Millvale Free Fridge and Pantry,45th St,,40.47885159999999,-79.97161609999999,broad_filled
"213 Grant Avenue, Millvale",Millvale Tool Library,45th St,4.4,40.47885159999999,-79.97161609999999,broad_filled
213 MAIN ST,,,,,,
"213 North Avenue, Millvale",Jean-Marc Chatellier's French Bakery,49th St,4.8,40.48123099999999,-79.974795,broad_filled
"2131 Straubs Lane, Pittsburgh",Linnea Marie Photography,43rd St,5.0,40.470324,-79.97867389999999,broad_filled
"2134 Lowrie Street, Pittsburgh",Pgh 360,42nd St,5.0,40.47007800000001,-79.97819109999999,broad_filled
214 1/2 43RD ST,,,,,,
214 43RD ST,,,,,,
214 46TH ST,,,,,,
214 57TH ST,,,,,,
214 FISK ST,,,,,,
"214 Grant Avenue, Millvale",B-Sides Vintage,45th St,4.6,40.4791409,-79.9714044,broad_filled
214 MAIN ST,,,,,,
215 38TH ST,,,,,,
215 39TH ST,Arsenal Elementary School,penn ave,4.5,40.46713749999999,-79.96302949999999,consolidated
215 42ND ST,,,,,,
215 44TH ST,,,,,,
215 FISK ST,,,,,,
215 FUJI CT,,,,,,
"215 Grant Avenue, Millvale",Eat Local Shop Small,45th St,,40.4789463,-79.97159169999999,broad_filled
215 MAIN ST,,,,,,
216 38TH ST,,,,,,
216 39TH ST,,,,,,
216 42ND ST,,,,,,
216 43RD ST,,,,,,
216 44TH ST,"Walter J. Zalewski Funeral Homes, Inc.",penn ave,4.7,40.4709689,-79.9593557,consolidated
216 45TH ST,,,,,,
216 46TH ST,,,,,,
216 57TH ST,,,,,,
216 FISK ST,,,,,,
"216 Grant Avenue, Millvale",Quiet Retreat Therapy,48th St,5.0,40.4791818,-79.9714522,broad_filled
216 MAIN ST,,,,,,
217 38TH ST,,,,,,
217 40TH ST,,,,,,
217 42ND ST,,,,,,
217 FISK ST,,,,,,
217 MAIN ST,,,,,,
"217 North Avenue, Millvale",Bar 3 Millvale,49th St,4.5,40.4814083,-79.9748153,broad_filled
218 39TH ST,,,,,,
218 42ND ST,,,,,,
218 57TH ST,,,,,,
218 FISK ST,,,,,,
218 MAIN ST,,,,,,
219 38TH ST,,,,,,
219 40TH ST,,,,,,
219 FISK ST,,,,,,
219 FUJI CT,,,,,,
219 MAIN ST,,,,,,
"219 North Avenue, Millvale",Esther's Hobby Shop,50th St,4.8,40.481468,-79.974755,broad_filled
22 39TH ST,,,,,,
22 48TH ST,,,,,,
"22 Butler Street, Millvale",The Gardens of Millvale,51st st,4.7,40.4790893,-79.9732111,consolidated
220 37TH ST,Capuchin Friars Development,penn ave,4.8,40.4657442,-79.96463709999999,consolidated
220 37TH ST,Province of St. Augustine,penn ave,,40.4657442,-79.96463709999999,consolidated
220 37TH ST,Archconfraternity of Christian,penn ave,,40.4657442,-79.96463709999999,consolidated
220 37TH ST,St Fidelis Development,penn ave,,40.4687649,-79.96522019999999,consolidated
220 37TH ST,Planned Giving,penn ave,,40.4657442,-79.96463709999999,bounding_only
220 38TH ST,,,,,,
220 39TH ST,,,,,,
220 39TH ST REAR,,,,,,
220 40TH ST,Arsenal Middle School,penn ave,4.4,40.4672279,-79.9628524,consolidated
220 42ND ST,,,,,,
220 46TH ST,,,,,,
220 48TH ST,,,,,,
220 57TH ST,,,,,,
220 FISK ST,,,,,,
"220 Lincoln Avenue, Millvale",Safety Guard Steel Fabricating Shop,48th St,,40.4801261,-79.9709302,broad_filled
220 MAIN ST,,,,,,
"220 North Avenue suite 4, Millvale",Steel City Scuba,50th St,4.7,40.481326,-79.9744827,broad_filled
"220 North Avenue, Millvale",Totaros Italian Eatery,52nd St,3.4,40.4812342,-79.97438369999999,broad_filled
"220 Taylor Street, Pittsburgh",Taylor Street Parking Plaza,liberty ave,,40.4632789,-79.9504347,bounding_only
221 36TH ST,St Augustine Friary,penn ave,5.0,40.46538679999999,-79.9648062,bounding_only
221 38TH ST,,,,,,
221 40TH ST,,,,,,
221 43RD ST,New Bethel Baptist Church,penn ave,4.6,40.47046030000001,-79.9596712,consolidated
221 FISK ST,,,,,,
"221 North Avenue, Pittsburgh",J P Paracca Flooring and Design,52nd St,4.6,40.48151289999999,-79.9747216,broad_filled
222 1/2 43RD ST,,,,,,
222 38TH ST,,,,,,
222 39TH ST,,,,,,
222 42ND ST,,,,,,
222 45TH ST,,,,,,
222 46TH ST,,,,,,
222 57TH ST,,,,,,
222 FISK ST,,,,,,
222 MAIN ST,,,,,,
223 1/2 38TH ST,,,,,,
223 40TH ST,,,,,,
223 42ND ST,,,,,,
223 44TH ST,,,,,,
223 45TH ST,,,,,,
223 FISK ST,,,,,,
"223 Grant Avenue, Millvale",Hometown Tattoo,46th St,4.9,40.479004,-79.97200939999999,broad_filled
"223 Grant Avenue, Millvale",Millvale United Methodist Church,45th St,,40.4789903,-79.9719219,broad_filled
"223 Karen Drive, Millvale",Painting N' At,56th St,5.0,40.4800374,-79.9849748,broad_filled
223 MAIN ST,,,,,,
"223 North Avenue, Millvale",Linked Hair Salon,52nd St,4.9,40.4815508,-79.9746198,broad_filled
"224 37th Street, Pittsburgh",Hyacinth Epp Hall,penn ave,,40.46560179999999,-79.96415379999999,bounding_only
224 38TH ST,,,,,,
224 39TH ST,,,,,,
224 42ND ST,,,,,,
224 45TH ST,,,,,,
224 57TH ST,,,,,,
224 FISK ST,,,,,,
"224 Grant Avenue, Pittsburgh",Nova Cafe Millvale,47th St,4.5,40.4792789,-79.97171039999999,broad_filled
224 MAIN ST,,,,,,
225 37TH ST,Saint Padre Pio Parish,penn ave,4.8,40.4652168,-79.9639261,consolidated
225 38TH ST,,,,,,
225 43RD ST,,,,,,
225 44TH ST,,,,,,
225 45TH ST,,,,,,
225 FISK ST,,,,,,
"225 Grant Avenue, Millvale",Medicap Pharmacy,46th St,4.7,40.479057,-79.9720861,broad_filled
225 MAIN ST,,,,,,
"225 North Avenue, Millvale",Millvale tobacco outlet,52nd St,5.0,40.48159460000001,-79.9746018,broad_filled
"225 North Avenue, Millvale",LibertyX Bitcoin ATM,52nd St,,40.48159460000001,-79.9746018,broad_filled
"225 Taylor Street, Pittsburgh",Pennsylvania TCOM Collaborative,liberty ave,,40.46320519999999,-79.95030369999999,bounding_only
226 1/2 42ND ST,,,,,,
226 1/2 45TH ST,,,,,,
226 1/2 45TH ST APT 101,,,,,,
226 1/2 45TH ST APT 201,,,,,,
226 38TH ST,,,,,,
226 39TH ST,,,,,,
226 42ND ST,,,,,,
226 43RD ST,,,,,,
226 45TH ST,,,,,,
226 45TH ST APT 101,,,,,,
226 45TH ST APT 201,,,,,,
226 46TH ST,,,,,,
226 57TH ST,,,,,,
226 FISK ST,,,,,,
"226 Grant Avenue, Pittsburgh",Anita New Look Wig Salon,48th St,,40.479392,-79.971775,broad_filled
"226 Grant Avenue, Millvale",Avanti Insurance Group,48th St,5.0,40.47939209999999,-79.9717746,broad_filled
226 MAIN ST,,,,,,
227 1/2 42ND ST,,,,,,
227 38TH ST,,,,,,
227 42ND ST,,,,,,
227 43RD ST,,,,,,
227 44TH ST,,,,,,
227 45TH ST,,,,,,
227 FISK ST,,,,,,
227 MAIN ST,,,,,,
"227 Maryland Avenue, Pittsburgh",Concannon Plumbing,48th st,5.0,40.47730869999999,-79.9730096,consolidated
"227 North Avenue, Millvale",Custom Hair Studio,McCandless Ave,5.0,40.48166680000001,-79.9745439,broad_filled
"227 Stanton Avenue, Pittsburgh",UA Local 542 Sprinklerfitters,43rd St,5.0,40.477802,-79.9713124,broad_filled
228 38TH ST,,,,,,
228 39TH ST,,,,,,
228 42ND ST,,,,,,
228 45TH ST,,,,,,
228 46TH ST,,,,,,
228 57TH ST,,,,,,
228 FISK ST,,,,,,
228 MAIN ST,,,,,,
229 38TH ST,,,,,,
229 40TH ST,,,,,,
229 42ND ST,,,,,,
229 43RD ST,,,,,,
229 44TH ST,,,,,,
229 45TH ST,,,,,,
229 FISK ST,,,,,,
229 MAIN ST,,,,,,
"23 Butler Street, Pittsburgh",Back To The Earth Healing Center,47th St,5.0,40.47960500000001,-79.9733962,broad_filled
230 36TH ST,St Augustine's Plaza,penn ave,3.2,40.464839,-79.9644769,consolidated
230 38TH ST,,,,,,
230 42ND ST,,,,,,
230 43RD ST,The Things You Want,penn ave,,40.46996629999999,-79.9593383,consolidated
230 44TH ST,,,,,,
230 45TH ST,,,,,,
230 48TH ST,,,,,,
230 57TH ST,,,,,,
230 FISK ST,,,,,,
230 MAIN ST,,,,,,
"230 Stanton Avenue, Pittsburgh",True Merchant,44th St,4.9,40.47797919999999,-79.9712816,broad_filled
"230 Stanton Avenue, Pittsburgh",Trace Services,44th St,2.6,40.47797919999999,-79.9712816,broad_filled
231 38TH ST,,,,,,
231 42ND ST,,,,,,
231 43RD ST,,,,,,
231 44TH ST,,,,,,
231 BELLTOWER LN,,,,,,
231 FISK ST,,,,,,
231 MAIN ST,,,,,,
232 38TH ST,,,,,,
232 42ND ST,,,,,,
232 43RD ST,,,,,,
232 44TH ST,,,,,,
232 45TH ST,,,,,,
232 46TH ST,,,,,,
232 57TH ST,,,,,,
232 FISK ST,,,,,,
232 MAIN ST,,,,,,
"232 North Avenue, Pittsburgh",Lincoln's P&G Diner,50th St,4.7,40.481517,-79.97427689999999,broad_filled
"232 North Avenue, Pittsburgh",Lincoln Pharmacy,49th St,5.0,40.4814278,-79.9743785,broad_filled
232 URBANA WAY,,,,,,
233 37TH ST,,,,,,
233 38TH ST,,,,,,
233 40TH ST,,,,,,
233 42ND ST,,,,,,
233 43RD ST,,,,,,
233 44TH ST,,,,,,
233 BELLTOWER LN,,,,,,
233 FISK ST,,,,,,
233 MAIN ST,,,,,,
234 37TH ST,,,,,,
234 38TH ST,,,,,,
234 42ND ST,,,,,,
234 43RD ST,,,,,,
234 44TH ST,,,,,,
234 45TH ST,,,,,,
234 46TH ST,,,,,,
234 57TH ST,,,,,,
234 FISK ST,,,,,,
234 MAIN ST,,,,,,
234 URBANA WAY,,,,,,
235 38TH ST,,,,,,
235 40TH ST,,,,,,
235 42ND ST,,,,,,
235 44TH ST,,,,,,
235 MAIN ST,,,,,,
236 38TH ST,,,,,,
236 42ND ST,,,,,,
236 44TH ST,,,,,,
236 45TH ST,,,,,,
236 57TH ST,,,,,,
236 FISK ST,,,,,,
236 MAIN ST,,,,,,
236 URBANA WAY,,,,,,
237 1/2 42ND ST,,,,,,
237 37TH ST,Zion Evangelical Lutheran Church,penn ave,4.4,40.4653802,-79.9635703,consolidated
237 38TH ST,,,,,,
237 40TH ST,,,,,,
237 42ND ST,,,,,,
237 44TH ST,,,,,,
237 45TH ST,,,,,,
237 MAIN ST,,,,,,
238 38TH ST,,,,,,
238 39TH ST,,,,,,
238 42ND ST,,,,,,
238 43RD ST,,,,,,
238 44TH ST,,,,,,
238 45TH ST,,,,,,
238 46TH ST,,,,,,
238 57TH ST,,,,,,
238 MAIN ST,,,,,,
238 URBANA WAY,,,,,,
239 1/2 URBANA WAY,,,,,,
239 38TH ST,,,,,,
239 40TH ST,,,,,,
239 42ND ST,,,,,,
239 44TH ST,,,,,,
239 45TH ST,,,,,,
239 MAIN ST,,,,,,
239 URBANA WAY,,,,,,
24 39TH ST,Scott Electric Lawrenceville,penn ave,4.3,40.4703046,-79.9670452,consolidated
24 39TH ST,USA Dust Guard,penn ave,5.0,40.47038420000001,-79.96670879999999,consolidated
24 39TH ST,Wesco Distribution Inc,penn ave,3.0,40.4702525,-79.9667027,consolidated
24 48TH ST,,,,,,
"24 Maryland Avenue, Pittsburgh",St. Nicholas Church,42nd St,4.9,40.4770936,-79.96970999999999,broad_filled
"24 Maryland Avenue, Pittsburgh",Maxo Vanka Murals,42nd St,4.8,40.4770694,-79.969625,broad_filled
240 1/2 46TH ST,,,,,,
240 38TH ST,,,,,,
240 39TH ST,,,,,,
240 42ND ST,,,,,,
240 44TH ST,,,,,,
240 45TH ST,,,,,,
240 46TH ST,,,,,,
240 MAIN ST,,,,,,
"2407 Mount Troy Road, Pittsburgh",Celik Insurance Agency Inc.,51st St,5.0,40.4726478,-79.9832129,broad_filled
241 37TH ST,,,,,,
241 38TH ST,,,,,,
241 42ND ST,,,,,,
241 44TH ST,,,,,,
241 FISK ST,,,,,,
241 MAIN ST,,,,,,
242 38TH ST,,,,,,
242 39TH ST,,,,,,
242 42ND ST,,,,,,
242 44TH ST,,,,,,
242 45TH ST,,,,,,
242 46TH ST,,,,,,
242 51ST ST,,,,,,
242 MAIN ST,,,,,,
242 URBANA WAY,,,,,,
243 37TH ST,,,,,,
243 38TH ST,,,,,,
243 40TH ST,,,,,,
243 42ND ST,,,,,,
243 44TH ST,,,,,,
243 45TH ST,,,,,,
243 FISK ST,Julius Jason M DDS,penn ave,5.0,40.4683881,-79.96006030000001,consolidated
243 MAIN ST,,,,,,
244 1/2 38TH ST,,,,,,
244 38TH ST,,,,,,
244 39TH ST,,,,,,
244 42ND ST,,,,,,
244 44TH ST,,,,,,
244 45TH ST,,,,,,
244 46TH ST,,,,,,
244 FISK ST,,,,,,
245 37TH ST,,,,,,
245 38TH ST,,,,,,
245 40TH ST,,,,,,
245 42ND ST,,,,,,
245 44TH ST,,,,,,
245 45TH ST,,,,,,
245 SERVICE WAY,,,,,,
246 37TH ST,,,,,,
246 37TH ST,,,,,,
246 37TH ST APT 1,,,,,,
246 37TH ST APT 2,,,,,,
246 38TH ST,,,,,,
246 39TH ST,,,,,,
246 42ND ST,,,,,,
246 45TH ST,,,,,,
246 46TH ST,,,,,,
246 A ATER WAY,,,,,,
246 B ATER WAY,,,,,,
246 FISK ST,,,,,,
"2462 Pittview Avenue, Pittsburgh",Pitt Penn Industrial Supply,42nd st,,40.4730845,-79.9750246,consolidated
247 1/2 42ND ST,,,,,,
247 37TH ST,,,,,,
247 40TH ST,,,,,,
247 42ND ST,,,,,,
247 44TH ST,,,,,,
247 45TH ST,,,,,,
247 COBALT WAY,,,,,,
247 FISK ST,,,,,,
247 SERVICE WAY,,,,,,
248 37TH ST,,,,,,
248 38TH ST,Ed's,penn ave,5.0,40.4657279,-79.9629975,consolidated
248 45TH ST,,,,,,
248 46TH ST,,,,,,
248 57TH ST,,,,,,
248 ATER WAY,,,,,,
248 FISK ST,,,,,,
248 MAIN ST,,,,,,
249 37TH ST,,,,,,
249 38TH ST,,,,,,
249 40TH ST,,,,,,
249 42ND ST,,,,,,
249 43RD ST,,,,,,
249 44TH ST,,,,,,
249 45TH ST,,,,,,
249 57TH ST,,,,,,
249 COBALT WAY,,,,,,
249 FISK ST,,,,,,
249 MAIN ST,,,,,,
249 SERVICE WAY,,,,,,
"25 Bateman Street Apartment 4, Pittsburgh",Veterans Place of Washington Boulevard,52nd st,,40.4806974,-79.97856879999999,consolidated
"25 Bateman Street, Millvale",Thatdude,52nd st,,40.480739,-79.97864299999999,consolidated
"25 Fornoff Street, Pittsburgh",Ossman Heating & Cooling,52nd st,5.0,40.4802693,-79.9748994,consolidated
250 36TH ST,,,,,,
250 36TH ST APT 1,,,,,,
250 36TH ST APT 2,,,,,,
250 37TH ST,,,,,,
250 38TH ST,,,,,,
250 39TH ST,,,,,,
250 42ND ST,,,,,,
250 44TH ST,,,,,,
250 45TH ST,,,,,,
250 46TH ST,,,,,,
250 48TH ST,,,,,,
250 FISK ST,,,,,,
251 37TH ST,,,,,,
251 38TH ST,,,,,,
251 40TH ST,,,,,,
251 42ND ST,,,,,,
251 42ND ST,,,,,,
251 43RD ST,,,,,,
251 44TH ST,,,,,,
251 45TH ST,,,,,,
251 FISK ST,,,,,,
251 SERVICE WAY,,,,,,
"2517 Mount Troy Road, Pittsburgh",Joyce Lee Beauty Salon,52nd St,5.0,40.47368539999999,-79.9843405,broad_filled
252 37TH ST,,,,,,
252 38TH ST,,,,,,
252 42ND ST,,,,,,
252 45TH ST,,,,,,
252 46TH ST,,,,,,
252 FISK ST,,,,,,
253 37TH ST,,,,,,
253 38TH ST,,,,,,
253 40TH ST,,,,,,
253 42ND ST,,,,,,
253 43RD ST,,,,,,
253 44TH ST,,,,,,
253 45TH ST,,,,,,
253 FISK ST,,,,,,
253 MAIN ST,,,,,,
253 SERVICE WAY,,,,,,
254 38TH ST,,,,,,
254 39TH ST,,,,,,
254 40TH ST,,,,,,
254 44TH ST,,,,,,
254 45TH ST,,,,,,
254 46TH ST,,,,,,
254 FISK ST,,,,,,
254 MAIN ST,,,,,,
255 37TH ST,,,,,,
255 38TH ST,,,,,,
255 40TH ST,,,,,,
255 42ND ST,,,,,,
255 44TH ST,,,,,,
255 45TH ST,,,,,,
255 FISK ST,,,,,,
255 MAIN ST,Silver Apple Gallery,penn ave,5.0,40.46867110000001,-79.959034,consolidated
255 SERVICE WAY,,,,,,
256 1/2 38TH ST,,,,,,
"256 37th Street, Pittsburgh",The Traveling Photo Booth,penn ave,5.0,40.4648932,-79.96332919999999,consolidated
256 37TH ST APT 1,,,,,,
256 37TH ST APT 2,,,,,,
256 38TH ST,,,,,,
256 44TH ST,,,,,,
256 45TH ST,,,,,,
256 46TH ST,,,,,,
256 MAIN ST,,,,,,
257 1/2 37TH ST,,,,,,
257 37TH ST,,,,,,
257 38TH ST,,,,,,
257 40TH ST,,,,,,
257 42ND ST,,,,,,
257 44TH ST,,,,,,
257 45TH ST,,,,,,
257 FISK ST,,,,,,
257 MAIN ST,,,,,,
258 37TH ST,,,,,,
258 38TH ST,,,,,,
258 39TH ST,,,,,,
258 42ND ST,Dr. Matthew Dianthony,penn ave,,40.4691058,-79.95859899999999,consolidated
258 42ND ST,Kandis Snyder,penn ave,,40.4691058,-79.95859899999999,consolidated
258 42ND ST,"The Office of David Orbison, Ph.D.",penn ave,,40.4690918,-79.9585848,consolidated
258 42ND ST,Fischetti Mario PHD,penn ave,5.0,40.4690918,-79.9585848,consolidated
258 44TH ST,,,,,,
258 45TH ST,,,,,,
258 46TH ST,,,,,,
258 ATER WAY,,,,,,
258 FISK ST,,,,,,
258 MAIN ST,,,,,,
259 37TH ST,,,,,,
259 38TH ST,,,,,,
259 42ND ST,,,,,,
259 44TH ST,,,,,,
259 45TH ST,,,,,,
259 ATER WAY,,,,,,
26 39TH ST,Spectra Contract Flooring,penn ave,,40.47029,-79.96678899999999,consolidated
26 39TH ST,Eclipse Wholesale Inc,butler st,4.0,40.4709266,-79.9665266,consolidated
26 48TH ST,,,,,,
260 37TH ST,,,,,,
260 38TH ST,,,,,,
260 39TH ST,New Arsenal Park,penn ave,,40.4662021,-79.9619917,consolidated
260 42ND ST,,,,,,
260 42ND ST UNIT 1,,,,,,
260 42ND ST UNIT 2,,,,,,
260 42ND ST UNIT 3,,,,,,
260 42ND ST UNIT 4,,,,,,
260 42ND ST UNIT 5,,,,,,
260 42ND ST UNIT 6,,,,,,
260 42ND ST UNIT 7,,,,,,
260 42ND ST UNIT 8,,,,,,
260 44TH ST,,,,,,
260 45TH ST,,,,,,
260 46TH ST,,,,,,
260 FISK ST,,,,,,
261 37TH ST,,,,,,
261 37TH ST APT 1,,,,,,
261 37TH ST APT 2,,,,,,
261 37TH ST APT 3,,,,,,
261 38TH ST,,,,,,
261 42ND ST,,,,,,
261 45TH ST,,,,,,
261 ATER WAY,,,,,,
261 FISK ST,,,,,,
261 MAIN ST,,,,,,
261 MAIN ST UNIT 1,,,,,,
261 MAIN ST UNIT 2,,,,,,
262 1/2 46TH ST,,,,,,
262 37TH ST,,,,,,
262 38TH ST,,,,,,
262 44TH ST,,,,,,
262 45TH ST,,,,,,
262 46TH ST,,,,,,
262 57TH ST,,,,,,
262 FISK ST,,,,,,
262 MAIN ST,,,,,,
262 SERVICE WAY,,,,,,
263 37TH ST,,,,,,
263 38TH ST,,,,,,
263 40TH ST,,,,,,
263 42ND ST,,,,,,
263 45TH ST,,,,,,
263 ATER WAY,,,,,,
263 FISK ST,,,,,,
263 MAIN ST,,,,,,
263 MAIN ST UNIT 1,,,,,,
263 MAIN ST UNIT 2,,,,,,
263 MAIN ST UNIT 3,,,,,,
264 37TH ST,,,,,,
264 38TH ST,,,,,,
264 39TH ST,,,,,,
264 44TH ST,,,,,,
264 45TH ST,,,,,,
264 46TH ST,,,,,,
264 FISK ST,,,,,,
264 MAIN ST,,,,,,
264 SERVICE WAY,,,,,,
265 40TH ST,,,,,,
265 42ND ST,,,,,,
265 45TH ST,,,,,,
265 46TH ST,RedStone Place,butler st,4.8,40.4717875,-79.9563388,consolidated
265 46TH ST,RedStone Place,butler st,4.8,40.4717875,-79.9563388,consolidated
265 46TH ST APT 1101,,,,,,
265 46TH ST APT 1102,,,,,,
265 46TH ST APT 1103,,,,,,
265 46TH ST APT 1104,,,,,,
265 46TH ST APT 1105,,,,,,
265 46TH ST APT 1106,,,,,,
265 46TH ST APT 1107,,,,,,
265 46TH ST APT 1108,,,,,,
265 46TH ST APT 1109,,,,,,
265 46TH ST APT 1110,,,,,,
265 46TH ST APT 1111,,,,,,
265 46TH ST APT 1112,,,,,,
265 46TH ST APT 1113,,,,,,
265 46TH ST APT 1114,,,,,,
265 46TH ST APT 1115,,,,,,
265 46TH ST APT 1116,,,,,,
265 46TH ST APT 1117,,,,,,
265 46TH ST APT 1118,,,,,,
265 46TH ST APT 1119,,,,,,
265 46TH ST APT 1120,,,,,,
265 46TH ST APT 1201,,,,,,
265 46TH ST APT 1202,,,,,,
265 46TH ST APT 1203,,,,,,
265 46TH ST APT 1204,,,,,,
265 46TH ST APT 1205,,,,,,
265 46TH ST APT 1206,,,,,,
265 46TH ST APT 1207,,,,,,
265 46TH ST APT 1208,,,,,,
265 46TH ST APT 1209,,,,,,
265 46TH ST APT 1210,,,,,,
265 46TH ST APT 1211,,,,,,
265 46TH ST APT 1212,,,,,,
265 46TH ST APT 1213,,,,,,
265 46TH ST APT 1214,,,,,,
265 46TH ST APT 1215,,,,,,
265 46TH ST APT 1216,,,,,,
265 46TH ST APT 1217,,,,,,
265 46TH ST APT 1218,,,,,,
265 46TH ST APT 1219,,,,,,
265 46TH ST APT 1220,,,,,,
265 46TH ST APT 1301,,,,,,
265 46TH ST APT 1302,,,,,,
265 46TH ST APT 1303,,,,,,
265 46TH ST APT 1304,,,,,,
265 46TH ST APT 1305,,,,,,
265 46TH ST APT 1306,,,,,,
265 46TH ST APT 1307,,,,,,
265 46TH ST APT 1308,,,,,,
265 46TH ST APT 1309,,,,,,
265 46TH ST APT 1310,,,,,,
265 46TH ST APT 1311,,,,,,
265 46TH ST APT 1312,,,,,,
265 46TH ST APT 1313,,,,,,
265 46TH ST APT 1314,,,,,,
265 46TH ST APT 1315,,,,,,
265 46TH ST APT 1316,,,,,,
265 46TH ST APT 1317,,,,,,
265 46TH ST APT 1318,,,,,,
265 46TH ST APT 1319,,,,,,
265 46TH ST APT 1320,,,,,,
265 46TH ST APT 2101,,,,,,
265 46TH ST APT 2102,,,,,,
265 46TH ST APT 2103,,,,,,
265 46TH ST APT 2104,,,,,,
265 46TH ST APT 2105,,,,,,
265 46TH ST APT 2106,,,,,,
265 46TH ST APT 2107,,,,,,
265 46TH ST APT 2108,,,,,,
265 46TH ST APT 2109,,,,,,
265 46TH ST APT 2110,,,,,,
265 46TH ST APT 2111,,,,,,
265 46TH ST APT 2112,,,,,,
265 46TH ST APT 2113,,,,,,
265 46TH ST APT 2114,,,,,,
265 46TH ST APT 2115,,,,,,
265 46TH ST APT 2116,,,,,,
265 46TH ST APT 2201,,,,,,
265 46TH ST APT 2202,,,,,,
265 46TH ST APT 2203,,,,,,
265 46TH ST APT 2204,,,,,,
265 46TH ST APT 2205,,,,,,
265 46TH ST APT 2206,,,,,,
265 46TH ST APT 2207,,,,,,
265 46TH ST APT 2208,,,,,,
265 46TH ST APT 2209,,,,,,
265 46TH ST APT 2210,,,,,,
265 46TH ST APT 2211,,,,,,
265 46TH ST APT 2212,,,,,,
265 46TH ST APT 2213,,,,,,
265 46TH ST APT 2214,,,,,,
265 46TH ST APT 2215,,,,,,
265 46TH ST APT 2216,,,,,,
265 46TH ST APT 2301,,,,,,
265 46TH ST APT 2302,,,,,,
265 46TH ST APT 2303,,,,,,
265 46TH ST APT 2304,,,,,,
265 46TH ST APT 2305,,,,,,
265 46TH ST APT 2306,,,,,,
265 46TH ST APT 2307,,,,,,
265 46TH ST APT 2308,,,,,,
265 46TH ST APT 2309,,,,,,
265 46TH ST APT 2310,,,,,,
265 46TH ST APT 2311,,,,,,
265 46TH ST APT 2312,,,,,,
265 46TH ST APT 2313,,,,,,
265 46TH ST APT 2314,,,,,,
265 46TH ST APT 2315,,,,,,
265 46TH ST APT 2316,,,,,,
"265 46th Street Apt. 1212, Pittsburgh",Steven Dalton Photography,butler st,5.0,40.4716649,-79.95629799999999,consolidated
265 ATER WAY,,,,,,
265 FISK ST,,,,,,
265 MAIN ST,,,,,,
265 MAIN ST UNIT 1,,,,,,
265 MAIN ST UNIT 2,,,,,,
266 1/2 38TH ST,,,,,,
266 37TH ST,,,,,,
266 38TH ST,,,,,,
266 39TH ST,,,,,,
266 42ND ST,,,,,,
266 44TH ST,,,,,,
266 45TH ST,,,,,,
266 46TH ST,,,,,,
266 FISK ST,,,,,,
266 MAIN ST,,,,,,
266 SERVICE WAY,,,,,,
267 42ND ST,,,,,,
267 45TH ST,,,,,,
267 FISK ST,,,,,,
267 MAIN ST,,,,,,
268 38TH ST,,,,,,
268 39TH ST,,,,,,
268 45TH ST,,,,,,
268 46TH ST,,,,,,
268 FISK ST,,,,,,
268 SERVICE WAY,,,,,,
269 40TH ST,,,,,,
269 45TH ST,,,,,,
269 ATER WAY,,,,,,
269 FISK ST,,,,,,
269 MAIN ST,,,,,,
27 51ST ST,,,,,,
270 38TH ST,,,,,,
270 39TH ST,,,,,,
270 45TH ST,,,,,,
270 46TH ST,,,,,,
270 48TH ST,,,,,,
270 FISK ST,,,,,,
270 MAIN ST,,,,,,
270 SERVICE WAY,,,,,,
271 38TH ST,,,,,,
271 40TH ST,,,,,,
271 45TH ST,,,,,,
271 FISK ST,,,,,,
271 MAIN ST,,,,,,
272 38TH ST,,,,,,
272 39TH ST,,,,,,
272 45TH ST,,,,,,
272 46TH ST,,,,,,
272 FISK ST,,,,,,
272 SERVICE WAY,,,,,,
273 38TH ST,,,,,,
273 42ND ST,,,,,,
273 45TH ST,,,,,,
273 FISK ST,,,,,,
273 MAIN ST,,,,,,
274 38TH ST,,,,,,
274 45TH ST,,,,,,
274 46TH ST,,,,,,
274 FISK ST,,,,,,
274 SERVICE WAY,,,,,,
274 WERNEBERG WAY,,,,,,
275 38TH ST,,,,,,
275 42ND ST,,,,,,
275 45TH ST,,,,,,
275 MAIN ST,,,,,,
276 38TH ST,,,,,,
276 39TH ST,The Slyrie Slirving Tennis Nest,penn ave,5.0,40.4660166,-79.9608038,consolidated
276 39TH ST,Arsenal Park,penn ave,4.4,40.46643419999999,-79.9608872,consolidated
276 45TH ST,,,,,,
276 46TH ST,,,,,,
276 FISK ST,,,,,,
276 SERVICE WAY,,,,,,
276 WERNEBERG WAY,,,,,,
277 38TH ST,,,,,,
277 42ND ST,,,,,,
277 45TH ST,,,,,,
277 MAIN ST,,,,,,
277 WERNEBERG WAY,,,,,,
278 38TH ST,,,,,,
278 46TH ST,,,,,,
278 FISK ST,,,,,,
278 MAIN ST,,,,,,
278 WERNEBERG WAY,,,,,,
279 38TH ST,,,,,,
279 45TH ST,,,,,,
279 45TH ST APT 1,,,,,,
279 45TH ST APT 2,,,,,,
279 45TH ST APT 3,,,,,,
279 FISK ST,CLP Lawrenceville,penn ave,,40.4675773,-79.9590953,consolidated
279 FISK ST,Carnegie Library of Pittsburgh - Lawrenceville,penn ave,4.7,40.4676128,-79.9590515,consolidated
279 MAIN ST,,,,,,
28 48TH ST,,,,,,
28 MCCANDLESS AVE,,,,,,
280 39TH ST,,,,,,
280 42ND ST,,,,,,
280 46TH ST,,,,,,
280 FISK ST,,,,,,
280 MAIN ST,,,,,,
280 WERNEBERG WAY,,,,,,
281 38TH ST,,,,,,
281 40TH ST,,,,,,
282 39TH ST,,,,,,
282 FISK ST,,,,,,
282 MAIN ST,,,,,,
283 38TH ST,,,,,,
284 39TH ST,,,,,,
284 FISK ST,,,,,,
284 MAIN ST,,,,,,
285 1/2 MAIN ST,,,,,,
285 38TH ST,,,,,,
285 40TH ST,,,,,,
285 45TH ST,Kelly's Korner,penn ave,4.6,40.4706761,-79.9569121,consolidated
285 MAIN ST,,,,,,
285 SERVICE WAY,,,,,,
286 39TH ST,,,,,,
286 FISK ST,,,,,,
286 MAIN ST,CYA-Stephen Foster Community Center,penn ave,4.2,40.46766799999999,-79.958663,consolidated
287 45TH ST,,,,,,
287 46TH ST,,,,,,
287 MAIN ST,,,,,,
287 SERVICE WAY,,,,,,
288 39TH ST,,,,,,
288 45TH ST,,,,,,
288 46TH ST,,,,,,
288 FISK ST,,,,,,
289 40TH ST,,,,,,
289 45TH ST,,,,,,
289 46TH ST,,,,,,
289 MAIN ST,,,,,,
29 35TH ST,,,,,,
"29 Sedgwick Street, Pittsburgh",Millvale Max Fitness,52nd st,,40.48014089999999,-79.9742833,consolidated
290 39TH ST,,,,,,
290 45TH ST,,,,,,
290 46TH ST,,,,,,
290 FISK ST,,,,,,
291 40TH ST,,,,,,
291 45TH ST,,,,,,
291 46TH ST,,,,,,
291 MAIN ST,,,,,,
292 1/2 45TH ST,,,,,,
292 39TH ST,,,,,,
292 45TH ST,,,,,,
292 46TH ST,,,,,,
292 FISK ST,,,,,,
293 38TH ST,,,,,,
293 38TH ST APT 1,,,,,,
293 38TH ST APT 2,,,,,,
293 40TH ST,,,,,,
293 45TH ST,,,,,,
293 FISK ST,,,,,,
294 39TH ST,,,,,,
294 45TH ST,,,,,,
294 46TH ST,,,,,,
294 FISK ST,,,,,,
294 MAIN ST,,,,,,
295 38TH ST,,,,,,
295 40TH ST,,,,,,
295 42ND ST,,,,,,
295 45TH ST,,,,,,
295 46TH ST,,,,,,
295 FISK ST,,,,,,
295 MAIN ST,,,,,,
296 1/2 38TH ST,,,,,,
296 1/2 45TH ST,,,,,,
296 38TH ST,,,,,,
296 39TH ST,,,,,,
296 45TH ST,,,,,,
296 46TH ST,,,,,,
296 MAIN ST,,,,,,
297 38TH ST,,,,,,
297 40TH ST,,,,,,
297 42ND ST,,,,,,
297 45TH ST,,,,,,
297 46TH ST,,,,,,
297 FISK ST,,,,,,
297 MAIN ST,,,,,,
298 38TH ST,,,,,,
298 39TH ST,,,,,,
298 45TH ST,,,,,,
298 46TH ST,,,,,,
"298 Bowery Way, Pittsburgh",Tugboat Printshop,penn ave,5.0,40.467453,-79.9579653,consolidated
298 MAIN ST,,,,,,
299 42ND ST,,,,,,
299 46TH ST,,,,,,
299 FISK ST,,,,,,
299 MAIN ST,,,,,,
"2997 Houston Street, Pittsburgh",Love Place Photography,54th St,5.0,40.4780408,-79.98487949999999,broad_filled
3 35TH ST,,,,,,
3 OHARA PL,,,,,,
3 OHARA PL APT 1,,,,,,
3 OHARA PL APT 2,,,,,,
3 OHARA PL APT 3,,,,,,
3 SAINT JOHN PL,,,,,,
3 SAINT JOHN PL APT 1,,,,,,
3 SAINT JOHN PL APT 2,,,,,,
3 SAINT JOHN PL APT 3,,,,,,
30 48TH ST,,,,,,
30 51ST ST,,,,,,
"30 Butler Street, Pittsburgh",Tough as nails,48th St,4.5,40.4796092,-79.9729567,broad_filled
300 1/2 45TH ST,,,,,,
300 39TH ST,Arsenal Cider House & Wine Cellar,penn ave,4.8,40.465108,-79.96092,consolidated
300 39TH ST,DJ Otto,penn ave,4.1,40.46508499999999,-79.960921,consolidated
300 39TH ST,Haversack Sandwich Co.,penn ave,5.0,40.46505519999999,-79.9609414,consolidated
"300 39th Street suite c, Pittsburgh",Otto Productions,penn ave,5.0,40.4650852,-79.9609206,consolidated
300 44TH ST,,,,,,
300 45TH ST,,,,,,
300 46TH ST,,,,,,
"300 Grant Avenue, Millvale",APlus 40225,48th St,,40.479347,-79.972008,broad_filled
"300 Grant Avenue, Millvale",Sunoco Gas Station,Plummer St,2.1,40.4795655,-79.9722123,broad_filled
300 MAIN ST,,,,,,
"300 Waterfront Drive, Pittsburgh",Three Rivers Rowing Association,38th St,4.8,40.466788,-79.9762859,broad_filled
"300 Waterfront Drive, Pittsburgh",Pittsburgh Hearts of Steel,38th St,,40.4668815,-79.97622779999999,broad_filled
301 1/2 MAIN ST,,,,,,
301 39TH ST,,,,,,
301 42ND ST,,,,,,
301 45TH ST,,,,,,
301 46TH ST,,,,,,
301 FISK ST,,,,,,
301 MAIN ST,,,,,,
"301 North Avenue, Pittsburgh",Tasty Taquitos,McCandless Ave,5.0,40.4818167,-79.97431859999999,broad_filled
301 WINESAP DR,,,,,,
"3015 Mount Troy Road, Pittsburgh",Rusty Hook Auto Salvage in Pittsburgh,56th St,4.9,40.4783377,-79.9868127,broad_filled
"3015 Mount Troy Road, Pittsburgh",Steve's Used Tires,56th St,4.5,40.4784198,-79.9868182,broad_filled
"3018 Mount Troy Road, Pittsburgh",Ironborn Contracting,56th St,4.7,40.4788407,-79.9863853,broad_filled
302 38TH ST,,,,,,
302 39TH ST,,,,,,
302 44TH ST,,,,,,
302 45TH ST,,,,,,
302 46TH ST,,,,,,
302 47TH ST,,,,,,
302 MAIN ST,,,,,,
303 1/2 45TH ST,,,,,,
303 38TH ST,,,,,,
303 45TH ST,,,,,,
303 46TH ST,,,,,,
303 FISK ST,,,,,,
"303 Grant Avenue, Pittsburgh",McWalker Yarns,48th St,4.8,40.479234,-79.9722891,broad_filled
303 MAIN ST,,,,,,
304 38TH ST,,,,,,
304 38TH ST REAR,,,,,,
304 39TH ST,,,,,,
304 44TH ST,,,,,,
304 45TH ST,,,,,,
304 46TH ST,,,,,,
304 MAIN ST,,,,,,
305 34TH ST,,,,,,
305 37TH ST,,,,,,
305 38TH ST,,,,,,
305 45TH ST,,,,,,
305 46TH ST,,,,,,
"305 Grant Avenue #2611, Pittsburgh",Wild At Heart Body Arts,46th St,4.9,40.47936079999999,-79.97230449999999,broad_filled
305 MAIN ST,,,,,,
305 WINESAP DR,,,,,,
306 38TH ST,,,,,,
306 38TH ST REAR,,,,,,
306 39TH ST,,,,,,
306 44TH ST,,,,,,
306 45TH ST,,,,,,
306 46TH ST,,,,,,
306 47TH ST,,,,,,
306 54TH ST,,,,,,
306 MAIN ST,,,,,,
307 1/2 FISK ST,,,,,,
307 34TH ST,,,,,,
307 37TH ST,,,,,,
307 38TH ST,,,,,,
307 39TH ST,,,,,,
307 45TH ST,,,,,,
307 46TH ST,,,,,,
307 FISK ST,,,,,,
"307 Grant Avenue, Millvale","Double L, INC",48th St,4.5,40.4793975,-79.97236149999999,broad_filled
307 MAIN ST,,,,,,
"307 Taylor Street, Pittsburgh",Rust Belt Relix,liberty ave,5.0,40.4621525,-79.9509984,consolidated
308 38TH ST,,,,,,
308 38TH ST REAR,,,,,,
308 42ND ST,,,,,,
308 44TH ST,,,,,,
308 45TH ST,,,,,,
308 54TH ST,,,,,,
308 MAIN ST,,,,,,
309 1/2 FISK ST,,,,,,
309 34TH ST,,,,,,
309 37TH ST,,,,,,
309 38TH ST,,,,,,
309 39TH ST,,,,,,
309 44TH ST,,,,,,
309 45TH ST,,,,,,
309 46TH ST,,,,,,
309 56TH ST,,,,,,
309 FISK ST,,,,,,
309 MAIN ST,,,,,,
309 WINESAP DR,,,,,,
31 35TH ST,,,,,,
310 1/2 42ND ST,,,,,,
310 38TH ST,,,,,,
310 38TH ST REAR,,,,,,
310 39TH ST,,,,,,
310 42ND ST,,,,,,
310 44TH ST,,,,,,
310 45TH ST,,,,,,
310 47TH ST,,,,,,
310 54TH ST,,,,,,
310 FISK ST,Family Hospice,penn ave,4.0,40.4659797,-79.9579565,consolidated
310 FISK ST,"Nisha Kamal Shah, DO",penn ave,,40.4661521,-79.9583097,consolidated
310 FISK ST,Lauren Cotherman,penn ave,,40.4660913,-79.9581117,consolidated
310 FISK ST,Denise A White,penn ave,,40.4660913,-79.9581117,consolidated
310 FISK ST,Huai Yong Cheng,penn ave,,40.4660913,-79.9581117,consolidated
310 FISK ST,Transitional Rehabilitation at Canterbury Place,penn ave,5.0,40.4662815,-79.9584636,consolidated
310 FISK ST,Lauren Dornin,penn ave,,40.4659797,-79.9579565,consolidated
310 FISK ST,Canterbury Place,penn ave,3.8,40.4659797,-79.9579565,consolidated
310 MAIN ST,,,,,,
311 1/2 45TH ST,,,,,,
311 1/2 FISK ST,,,,,,
311 1/2 SERVICE WAY,,,,,,
311 37TH ST,,,,,,
311 38TH ST,,,,,,
311 39TH ST,,,,,,
311 44TH ST,,,,,,
311 45TH ST,,,,,,
311 54TH ST,,,,,,
311 FISK ST,,,,,,
311 MAIN ST,,,,,,
311 SERVICE WAY,,,,,,
311 WINESAP DR,,,,,,
312 38TH ST,,,,,,
312 38TH ST REAR,,,,,,
312 39TH ST,,,,,,
312 44TH ST,,,,,,
312 45TH ST,,,,,,
312 47TH ST,,,,,,
"312 Grant Avenue, Pittsburgh",Creative Citizen studios,Plummer St,,40.47972609999999,-79.97263099999999,broad_filled
"312 Grant Avenue, Pittsburgh",Creative Citizen studios,Plummer St,,40.47972609999999,-79.97263099999999,broad_filled
312 SERVICE WAY,,,,,,
313 38TH ST,,,,,,
313 39TH ST,,,,,,
313 44TH ST,,,,,,
313 MAIN ST,,,,,,
"313 North Avenue, Pittsburgh",ATM,McCandless Ave,,40.4821316,-79.97416009999999,broad_filled
"313 North Avenue, Pittsburgh",Poetry Lounge,McCandless Ave,4.6,40.48214279999999,-79.9741324,broad_filled
314 39TH ST,,,,,,
314 44TH ST,,,,,,
314 45TH ST,,,,,,
"314 Grant Avenue, Pittsburgh",7Th Sense Salon,Plummer St,5.0,40.47969140000001,-79.9725708,broad_filled
314 MAIN ST,,,,,,
315 37TH ST,,,,,,
315 38TH ST,,,,,,
315 39TH ST,,,,,,
315 44TH ST,,,,,,
315 45TH ST,,,,,,
315 MAIN ST,,,,,,
"315 North Avenue, Pittsburgh",Atkinson Beer Distributor,51st St,4.5,40.48217229999999,-79.9740195,broad_filled
"315 North Avenue, Millvale",Glenn Distributing Inc.,53rd St,4.6,40.48217229999999,-79.9740195,broad_filled
315 WINESAP DR,,,,,,
316 37TH ST,,,,,,
316 38TH ST,,,,,,
316 39TH ST,,,,,,
316 44TH ST,,,,,,
316 45TH ST,,,,,,
316 47TH ST,,,,,,
"316 Grant Avenue, Pittsburgh",Lawrence Locksmith Shop,Plummer St,1.0,40.47976169999999,-79.9726717,broad_filled
"316 Grant Avenue, Millvale",Jack's Discount Videos,Plummer St,4.4,40.4797227,-79.97263579999999,broad_filled
316 MAIN ST,,,,,,
316 SERVICE WAY,,,,,,
317 37TH ST,,,,,,
317 38TH ST,,,,,,
317 39TH ST,,,,,,
317 44TH ST,,,,,,
317 MAIN ST,,,,,,
"317 Stanton Avenue, Pittsburgh",Vecenies Distributing,plummer st,4.3,40.477829,-79.97212560000001,consolidated
"317 William Street, Pittsburgh",Zurcher Home Improvements,53rd St,5.0,40.4828567,-79.9752041,broad_filled
318 37TH ST,,,,,,
318 39TH ST,,,,,,
318 42ND ST,,,,,,
318 45TH ST,,,,,,
318 52ND ST,,,,,,
"318 Grant Avenue, Millvale",Ceney Electronics,Plummer St,4.2,40.479776,-79.97272319999999,broad_filled
319 37TH ST,,,,,,
319 38TH ST,,,,,,
319 39TH ST,,,,,,
319 44TH ST,,,,,,
319 FISK ST,,,,,,
319 MAIN ST,,,,,,
319 SERVICE WAY,,,,,,
319 WINESAP DR,,,,,,
32 39TH ST,Joule Design,penn ave,,40.4689371,-79.9656795,consolidated
32 48TH ST,,,,,,
32 62ND ST,,,,,,
320 37TH ST,,,,,,
320 38TH ST,,,,,,
320 39TH ST,,,,,,
320 42ND ST,,,,,,
320 44TH ST,,,,,,
320 MAIN ST,,,,,,
321 37TH ST,,,,,,
321 38TH ST,,,,,,
321 39TH ST,,,,,,
321 44TH ST,,,,,,
321 FISK ST,,,,,,
"321 Grant Avenue, Pittsburgh","Code.sys Code Consulting, Inc.",Plummer St,3.5,40.47971889999999,-79.9728868,broad_filled
321 MAIN ST,,,,,,
322 1/2 38TH ST,,,,,,
322 37TH ST,,,,,,
322 38TH ST,,,,,,
322 39TH ST,,,,,,
322 42ND ST,,,,,,
322 44TH ST,,,,,,
322 45TH ST,,,,,,
"322 Grant Avenue, Pittsburgh",Eidenmiller Real Estate,48th St,,40.4798513,-79.9727868,broad_filled
322 MAIN ST,,,,,,
"3225 Smallman Street, Pittsburgh",Pacific Pride Commercial Fueling,34th St,4.3,40.46226590000001,-79.9700751,broad_filled
"3229 Spruce Way, Pittsburgh",BearCom,34th St,4.3,40.4624513,-79.97060700000002,broad_filled
323 37TH ST,,,,,,
323 38TH ST,,,,,,
323 39TH ST,,,,,,
323 44TH ST,,,,,,
323 FISK ST,,,,,,
323 MAIN ST,,,,,,
"323 Stanton Avenue, Pittsburgh",Certified Pittsburgh Translation,plummer st,5.0,40.4778836,-79.9723937,consolidated
"323 Stanton Avenue, Millvale",Graph-X Printing,plummer st,5.0,40.4778898,-79.97241799999999,consolidated
"323 Stanton Avenue, Millvale",Best Business Forms Co,plummer st,5.0,40.4779108,-79.97246799999999,consolidated
323 WINESAP DR,,,,,,
324 37TH ST,,,,,,
324 38TH ST,,,,,,
324 39TH ST,,,,,,
324 42ND ST,,,,,,
324 44TH ST,,,,,,
324 45TH ST,,,,,,
324 MAIN ST,,,,,,
324 SERVICE WAY,,,,,,
"324 Taylor Street, Pittsburgh",Progressive Office Cabling,liberty ave,3.7,40.46208199999999,-79.951639,consolidated
325 37TH ST,,,,,,
325 38TH ST,,,,,,
325 39TH ST,,,,,,
325 44TH ST,,,,,,
325 FISK ST,,,,,,
325 MAIN ST,,,,,,
326 1/2 45TH ST,,,,,,
326 37TH ST,,,,,,
326 38TH ST,,,,,,
326 39TH ST,,,,,,
326 42ND ST,,,,,,
326 44TH ST,,,,,,
326 45TH ST,,,,,,
326 MAIN ST,,,,,,
327 37TH ST,,,,,,
327 38TH ST,,,,,,
327 39TH ST,,,,,,
327 44TH ST,,,,,,
327 FARLEY WAY,,,,,,
327 FISK ST,,,,,,
327 MAIN ST,,,,,,
327 MAIN ST REAR,,,,,,
328 39TH ST,,,,,,
328 42ND ST,,,,,,
328 44TH ST,,,,,,
328 45TH ST,,,,,,
328 MAIN ST,,,,,,
329 37TH ST,,,,,,
329 38TH ST,,,,,,
329 44TH ST,,,,,,
"329 East Ohio Street, Pittsburgh","Daniels Electric Service, LLC",42nd St,4.1,40.4775454,-79.9694912,broad_filled
329 FARLEY WAY,,,,,,
329 FISK ST,,,,,,
329 MAIN ST,,,,,,
"33 Lonsdale Street, Pittsburgh",Reserve Volunteer Fire Department,49th St,5.0,40.4743828,-79.9822758,broad_filled
"33 Lonsdale Street, Pittsburgh",Mt Troy Ballroom,49th St,4.4,40.4741927,-79.98242499999999,broad_filled
"33 Lonsdale Street # 2, Pittsburgh",Reserve Township Office,50th St,3.0,40.4741355,-79.98256479999999,broad_filled
330 39TH ST,,,,,,
330 42ND ST,,,,,,
330 44TH ST,,,,,,
330 45TH ST,,,,,,
330 46TH ST,Joey Kennedy Photography,penn ave,5.0,40.4702054,-79.9558125,consolidated
330 46TH ST APT 101,,,,,,
330 46TH ST APT 102,,,,,,
330 46TH ST APT 103,,,,,,
330 46TH ST APT 104,,,,,,
330 46TH ST APT 105,,,,,,
330 46TH ST APT 106,,,,,,
330 46TH ST APT 107,,,,,,
330 46TH ST APT 108,,,,,,
330 46TH ST APT 109,,,,,,
330 46TH ST APT 110,,,,,,
330 46TH ST APT 111,,,,,,
330 46TH ST APT 112,,,,,,
330 46TH ST APT 201,,,,,,
330 46TH ST APT 202,,,,,,
330 46TH ST APT 203,,,,,,
330 46TH ST APT 204,,,,,,
330 46TH ST APT 205,,,,,,
330 46TH ST APT 206,,,,,,
330 46TH ST APT 207,,,,,,
330 46TH ST APT 208,,,,,,
330 46TH ST APT 209,,,,,,
330 46TH ST APT 210,,,,,,
330 46TH ST APT 211,,,,,,
330 46TH ST APT 212,,,,,,
330 46TH ST APT 213,,,,,,
330 46TH ST APT 214,,,,,,
330 46TH ST APT 301,,,,,,
330 46TH ST APT 302,,,,,,
330 46TH ST APT 303,,,,,,
330 46TH ST APT 304,,,,,,
330 46TH ST APT 305,,,,,,
330 46TH ST APT 306,,,,,,
330 46TH ST APT 307,,,,,,
330 46TH ST APT 308,,,,,,
330 46TH ST APT 309,,,,,,
330 46TH ST APT 310,,,,,,
330 MAIN ST,,,,,,
330 PERCY ST,,,,,,
3300 PENN AVE,,,,,,
3301 SMALLMAN ST,Pittsburgh Tire,34th St,4.4,40.46285090000001,-79.969315,broad_filled
3302 SMALLMAN ST,,,,,,
331 37TH ST,,,,,,
331 39TH ST,,,,,,
331 44TH ST,,,,,,
331 46TH ST,,,,,,
"331 East Ohio Street, Pittsburgh",West Penn Laco - NORTH - Millvale,42nd St,5.0,40.4775493,-79.9697807,broad_filled
331 FISK ST,,,,,,
331 MAIN ST,,,,,,
331 WINESAP DR,,,,,,
3315 LIBERTY AVE,,,,,,
3315 PENN AVE,,,,,,
332 36TH ST,,,,,,
332 39TH ST,,,,,,
332 42ND ST,,,,,,
332 44TH ST,,,,,,
332 45TH ST,,,,,,
3320 PENN AVE,,,,,,
3321 LIBERTY AVE,,,,,,
3323 PENN AVE,,,,,,
3328 PENN AVE,,,,,,
3329 LIBERTY AVE,,,,,,
333 33RD ST,,,,,,
333 38TH ST,,,,,,
333 39TH ST,,,,,,
333 42ND ST,,,,,,
333 44TH ST,,,,,,
333 45TH ST,Our Lady of the Angels Parish,penn ave,4.4,40.4699635,-79.9558283,consolidated
333 46TH ST,,,,,,
333 FISK ST,,,,,,
3333 LIGONIER ST,,,,,,
3334 SPRING WAY,,,,,,
3335 LIGONIER ST,,,,,,
3336 SPRING WAY,,,,,,
3337 LIGONIER ST,,,,,,
3337 PENN AVE,,,,,,
3339 PENN AVE,,,,,,
334 39TH ST,,,,,,
334 42ND ST,,,,,,
334 44TH ST,,,,,,
334 MAIN ST,,,,,,
334 PERCY ST,,,,,,
3340 LIBERTY AVE,,,,,,
3340 SMALLMAN ST,Pittsburgh Kitchenramma,34th St,3.8,40.4628416,-79.968384,broad_filled
3341 LIGONIER ST,,,,,,
3343 LIGONIER ST,,,,,,
3345 LIGONIER ST,,,,,,
3345 PENN AVE,,,,,,
3345 PENN AVE APT A,,,,,,
3345 PENN AVE APT B,,,,,,
3345 PENN AVE APT C,,,,,,
3345 PENN AVE APT D,,,,,,
3345 PENN AVE APT E,,,,,,
3345 PENN AVE APT F,,,,,,
3345 PENN AVE APT G,,,,,,
3345 PENN AVE APT H,,,,,,
3345 PENN AVE APT I,,,,,,
3345 PENN AVE APT J,,,,,,
3345 PENN AVE APT K,,,,,,
3345 PENN AVE STE 101,,,,,,
3345 PENN AVE STE 102,,,,,,
3345 PENN AVE STE 103,,,,,,
3345 PENN AVE STE 104,,,,,,
3349 LIBERTY AVE,,,,,,
3349 LIGONIER ST,,,,,,
335 37TH ST,,,,,,
335 39TH ST,,,,,,
335 44TH ST,,,,,,
335 46TH ST,,,,,,
335 FISK ST,,,,,,
335 MAIN ST,,,,,,
335 PAXTON PL,,,,,,
335 URBANA WAY,,,,,,
335 WINESAP DR,,,,,,
3350 PENN AVE,,,,,,
3350 PENN AVE APT 203,,,,,,
3350 PENN AVE APT 204,,,,,,
3350 PENN AVE APT 205,,,,,,
3350 PENN AVE APT 206,,,,,,
3350 PENN AVE APT 207,,,,,,
3350 PENN AVE APT 208,,,,,,
3350 PENN AVE APT 209,,,,,,
3350 PENN AVE APT 210,,,,,,
3350 PENN AVE APT 211,,,,,,
3350 PENN AVE APT 212,,,,,,
3350 PENN AVE APT 303,,,,,,
3350 PENN AVE APT 304,,,,,,
3350 PENN AVE APT 305,,,,,,
3350 PENN AVE APT 306,,,,,,
3350 PENN AVE APT 307,,,,,,
3350 PENN AVE APT 308,,,,,,
3350 PENN AVE APT 309,,,,,,
3350 PENN AVE APT 310,,,,,,
3350 PENN AVE APT 311,,,,,,
3350 PENN AVE APT 312,,,,,,
3350 PENN AVE STE 102,,,,,,
3350 PENN AVE STE 104,,,,,,
3351 LIGONIER ST,,,,,,
3352 SPRING WAY,,,,,,
3353 LIGONIER ST,,,,,,
3354 PENN AVE,,,,,,
3356 SPRING WAY,,,,,,
3358 SPRING WAY,,,,,,
336 39TH ST,,,,,,
336 42ND ST,,,,,,
336 45TH ST,,,,,,
336 PERCY ST,,,,,,
337 39TH ST,,,,,,
337 42ND ST,,,,,,
337 44TH ST,,,,,,
337 46TH ST,,,,,,
337 FISK ST,,,,,,
337 MAIN ST,,,,,,
337 PAXTON PL,,,,,,
337 URBANA WAY,,,,,,
338 42ND ST,,,,,,
338 44TH ST,,,,,,
338 45TH ST,,,,,,
338 MAIN ST,,,,,,
338 PERCY ST,,,,,,
339 37TH ST,,,,,,
339 39TH ST,,,,,,
339 42ND ST,,,,,,
339 44TH ST,,,,,,
339 46TH ST,,,,,,
339 FISK ST,,,,,,
339 MAIN ST,,,,,,
339 WINESAP DR,,,,,,
34 48TH ST,,,,,,
340 42ND ST,,,,,,
340 44TH ST,,,,,,
340 45TH ST,,,,,,
340 46TH ST,,,,,,
"340 Pearl Street, Pittsburgh","Dr. Raj A. Narayan, MD",liberty ave,2.2,40.461142,-79.9509063,consolidated
340 SERVICE WAY,,,,,,
3400 BUTLER ST,,,,,,
3400 LIBERTY AVE,,,,,,
3400 SMALLMAN ST,Mark's Truck & Auto Care,34th St,5.0,40.46320029999999,-79.9682034,broad_filled
3401 BUTLER ST,,,,,,
3401 LIBERTY AVE,Palate Partners School of Wine & Spirits,Penn Ave,4.0,40.4619066,-79.9655698,broad_filled
3401 LIBERTY AVE,Dreadnought Wines,Penn Ave,4.5,40.461966,-79.96541020000001,broad_filled
3401 LIBERTY AVE,Soiree Partners,Penn Ave,5.0,40.46198389999999,-79.9654482,broad_filled
3403 BUTLER ST,,,,,,
3403 MULBERRY WAY,,,,,,
3404 PENN AVE,,,,,,
3405 BUTLER ST,,,,,,
3405 MULBERRY WAY,,,,,,
3406 CHARLOTTE ST,,,,,,
3406 PENN AVE,,,,,,
3407 BUTLER ST,,,,,,
3407 MULBERRY WAY,,,,,,
3408 CHARLOTTE ST,,,,,,
3409 BUTLER ST,,,,,,
3409 DENNY ST,,,,,,
341 42ND ST,,,,,,
341 44TH ST,,,,,,
341 46TH ST,,,,,,
341 FISK ST,,,,,,
341 MAIN ST,,,,,,
341 PAXTON PL,,,,,,
3410 CHARLOTTE ST,Charlotte Dumpster Rental Pittsburgh,34th St,,40.4632478,-79.9677706,broad_filled
3410 CHARLOTTE ST,BCBS,34th St,4.0,40.4632478,-79.9677706,broad_filled
3410 PENN AVE,,,,,,
3411 BUTLER ST,,,,,,
3411 DENNY ST,,,,,,
3412 LIGONIER ST,,,,,,
3413 DENNY ST,,,,,,
3414 CHARLOTTE ST,Pittsburgh HVAC Services,34th St,4.9,40.4633499,-79.9675818,broad_filled
3414 CHARLOTTE ST,ADM Signs,34th St,5.0,40.4633377,-79.9675914,broad_filled
3415 DENNY ST,,,,,,
3415 LIGONIER ST,,,,,,
3416 LIGONIER ST,,,,,,
3416 PENN AVE,,,,,,
3417 DENNY ST,,,,,,
3417 LIBERTY AVE,,,,,,
3417 LIBERTY AVE APT 1,,,,,,
3417 LIBERTY AVE APT 2,,,,,,
3417 LIBERTY AVE APT 3,,,,,,
3417 SMALLMAN ST,,,,,,
3418 LIGONIER ST,,,,,,
3418 PENN AVE,Yoga Factory Pittsburgh - Lawrenceville,Penn Ave,4.8,40.46294889999999,-79.9664827,broad_filled
3419 DENNY ST,,,,,,
3419 LIBERTY AVE,,,,,,
3419 LIBERTY AVE APT 1,,,,,,
3419 LIBERTY AVE APT 2,,,,,,
3419 LIBERTY AVE APT 3,,,,,,
3419 SMALLMAN ST,Pressure Chemical Co,34th St,5.0,40.463963,-79.96838199999999,broad_filled
342 39TH ST,,,,,,
342 42ND ST,,,,,,
342 45TH ST,,,,,,
342 MAIN ST,,,,,,
342 SERVICE WAY,,,,,,
3420 LIGONIER ST,,,,,,
3421 DENNY ST,,,,,,
3421 LIBERTY AVE,,,,,,
3421 LIBERTY AVE APT 1,,,,,,
3421 LIBERTY AVE APT 2,,,,,,
3421 LIBERTY AVE APT 3,,,,,,
3421 SMALLMAN ST,,,,,,
3422 DENNY ST,,,,,,
3422 DENNY ST APT 1,,,,,,
3422 DENNY ST APT 2,,,,,,
3422 DENNY ST APT 3,,,,,,
3422 LIGONIER ST,,,,,,
3422 PENN AVE,,,,,,
3423 DENNY ST,,,,,,
3423 LIBERTY AVE,,,,,,
3423 LIBERTY AVE APT 1,,,,,,
3423 LIBERTY AVE APT 2,,,,,,
3423 LIBERTY AVE APT 3,,,,,,
3424 DENNY ST,,,,,,
3424 DENNY ST APT 1,,,,,,
3424 DENNY ST APT 2,,,,,,
3424 DENNY ST APT 3,,,,,,
3424 LIBERTY AVE,,,,,,
3424 LIGONIER ST,,,,,,
3424 PENN AVE,,,,,,
3425 DENNY ST,,,,,,
3425 LIBERTY AVE,,,,,,
3425 LIBERTY AVE APT 1,,,,,,
3425 LIBERTY AVE APT 2,,,,,,
3425 LIBERTY AVE APT 3,,,,,,
3426 DENNY ST,,,,,,
3426 DENNY ST APT 1,,,,,,
3426 DENNY ST APT 2,,,,,,
3426 DENNY ST APT 3,,,,,,
3426 PENN AVE,,,,,,
3427 BUTLER ST,,,,,,
3427 DENNY ST,,,,,,
3427 LIBERTY AVE,,,,,,
3427 LIBERTY AVE APT 1,,,,,,
3427 LIBERTY AVE APT 2,,,,,,
3427 LIBERTY AVE APT 3,,,,,,
3428 DENNY ST,,,,,,
3428 DENNY ST APT 1,,,,,,
3428 DENNY ST APT 2,,,,,,
3428 DENNY ST APT 3,,,,,,
3428 PENN AVE,,,,,,
3429 BUTLER ST,,,,,,
3429 DENNY ST,,,,,,
3429 LIBERTY AVE,,,,,,
3429 LIBERTY AVE APT 1,,,,,,
3429 LIBERTY AVE APT 2,,,,,,
3429 LIBERTY AVE APT 3,,,,,,
343 33RD ST,,,,,,
343 42ND ST,,,,,,
343 44TH ST,,,,,,
343 46TH ST,,,,,,
"343 Cedarville Street, Pittsburgh",Lower Bloomfield Unity Council,liberty ave,,40.460439,-79.949546,bounding_only
343 FISK ST,,,,,,
343 MAIN ST,,,,,,
343 PAXTON PL,,,,,,
343 WINESAP DR,,,,,,
3430 DENNY ST,,,,,,
3430 DENNY ST APT 1,,,,,,
3430 DENNY ST APT 2,,,,,,
3430 DENNY ST APT 3,,,,,,
3430 PENN AVE,,,,,,
3430 SMALLMAN ST,,,,,,
3431 DENNY ST,,,,,,
3432 DENNY ST,,,,,,
3432 DENNY ST APT 1,,,,,,
3432 DENNY ST APT 2,,,,,,
3432 DENNY ST APT 3,,,,,,
3432 LIGONIER ST,,,,,,
3432 PENN AVE,,,,,,
3433 BUTLER ST,,,,,,
3433 BUTLER ST UNIT,,,,,,
3433 BUTLER ST UNIT 101,,,,,,
3433 BUTLER ST UNIT 102,,,,,,
3433 BUTLER ST UNIT 104,,,,,,
3433 BUTLER ST UNIT 201,,,,,,
3433 BUTLER ST UNIT 202,,,,,,
3433 BUTLER ST UNIT 203,,,,,,
3433 BUTLER ST UNIT 204,,,,,,
3433 BUTLER ST UNIT 301,,,,,,
3433 BUTLER ST UNIT 302,,,,,,
3433 BUTLER ST UNIT 303,,,,,,
3433 BUTLER ST UNIT 304,,,,,,
3433 BUTLER ST UNIT 401,,,,,,
3433 BUTLER ST UNIT 402,,,,,,
3433 BUTLER ST UNIT 403,,,,,,
3433 BUTLER ST UNIT 404,,,,,,
3433 DENNY ST,,,,,,
3433 LIGONIER ST,,,,,,
3433 SMALLMAN ST,Allegheny Plywood Co,34th St,4.5,40.4642779,-79.96807989999999,broad_filled
3434 LIGONIER ST,,,,,,
3434 PENN AVE,,,,,,
3435 DENNY ST,,,,,,
3435 LIGONIER ST,,,,,,
3436 LIGONIER ST,,,,,,
3436 PENN AVE,,,,,,
3437 BUTLER ST,,,,,,
3437 DENNY ST,,,,,,
3437 LIGONIER ST,,,,,,
3437 PENN AVE,,,,,,
3438 LIGONIER ST,,,,,,
3438 PENN AVE,,,,,,
3439 BUTLER ST,,,,,,
3439 DENNY ST,,,,,,
3439 LIGONIER ST,,,,,,
3439 PENN AVE,,,,,,
344 39TH ST,,,,,,
344 42ND ST,,,,,,
344 45TH ST,,,,,,
3440 LIGONIER ST,,,,,,
3440 PENN AVE,,,,,,
3441 BUTLER ST,LOYALTY ENTERTAINMENT ,penn ave,5.0,40.4639279,-79.9666713,consolidated
3441 DENNY ST,,,,,,
3441 LIGONIER ST,,,,,,
3441 PENN AVE,,,,,,
3443 BUTLER ST,,,,,,
3443 DENNY ST,,,,,,
3443 PENN AVE,,,,,,
3445 DENNY ST,,,,,,
3445 LIGONIER ST,,,,,,
3445 PENN AVE,,,,,,
3445 SPRING WAY,,,,,,
3446 CHARLOTTE ST,,,,,,
3446 LIGONIER ST,,,,,,
3447 1/2 DENNY ST,,,,,,
3447 DENNY ST,,,,,,
3447 LIGONIER ST,,,,,,
3447 PENN AVE,,,,,,
3448 1/2 LIGONIER ST,,,,,,
3448 LIGONIER ST,,,,,,
3449 1/2 DENNY ST,,,,,,
3449 DENNY ST,,,,,,
3449 LIGONIER ST,,,,,,
3449 PENN AVE,,,,,,
345 46TH ST,,,,,,
345 FISK ST,,,,,,
345 MAIN ST,,,,,,
345 MANION WAY,,,,,,
3450 LIGONIER ST,,,,,,
3451 BUTLER ST,,,,,,
3451 DENNY ST,,,,,,
3451 LIGONIER ST,,,,,,
3451 PENN AVE,,,,,,
3451 SPRING WAY,,,,,,
3452 LIGONIER ST,,,,,,
3453 BUTLER ST,,,,,,
3453 SPRING WAY,,,,,,
3454 LIGONIER ST,,,,,,
3454 PENN AVE,,,,,,
3455 1/2 LIGONIER ST,,,,,,
3455 DENNY ST,,,,,,
3455 LIGONIER ST,,,,,,
3456 PENN AVE,,,,,,
3457 LIGONIER ST,,,,,,
3458 PENN AVE,,,,,,
3459 BUTLER ST,,,,,,
3459 BUTLER ST APT 101,,,,,,
3459 BUTLER ST APT 102,,,,,,
3459 BUTLER ST APT 103,,,,,,
3459 BUTLER ST APT 104,,,,,,
3459 BUTLER ST APT 105,,,,,,
3459 BUTLER ST APT 106,,,,,,
3459 BUTLER ST APT 201,,,,,,
3459 BUTLER ST APT 202,,,,,,
3459 BUTLER ST APT 203,,,,,,
3459 BUTLER ST APT 204,,,,,,
3459 BUTLER ST APT 205,,,,,,
3459 BUTLER ST APT 206,,,,,,
3459 BUTLER ST APT 207,,,,,,
3459 BUTLER ST APT 208,,,,,,
3459 BUTLER ST APT 209,,,,,,
3459 BUTLER ST APT 210,,,,,,
3459 BUTLER ST APT 211,,,,,,
3459 BUTLER ST APT 212,,,,,,
3459 BUTLER ST APT 213,,,,,,
3459 BUTLER ST APT 301,,,,,,
3459 BUTLER ST APT 302,,,,,,
3459 BUTLER ST APT 303,,,,,,
3459 BUTLER ST APT 304,,,,,,
3459 BUTLER ST APT 305,,,,,,
3459 BUTLER ST APT 306,,,,,,
3459 BUTLER ST APT 307,,,,,,
3459 BUTLER ST APT 308,,,,,,
3459 BUTLER ST APT 309,,,,,,
3459 BUTLER ST APT 310,,,,,,
3459 BUTLER ST APT 311,,,,,,
3459 BUTLER ST APT 312,,,,,,
3459 BUTLER ST APT 313,,,,,,
3459 BUTLER ST APT 401,,,,,,
3459 BUTLER ST APT 402,,,,,,
3459 BUTLER ST APT 403,,,,,,
3459 BUTLER ST APT 404,,,,,,
3459 BUTLER ST APT 405,,,,,,
3459 BUTLER ST APT 406,,,,,,
3459 BUTLER ST APT 407,,,,,,
3459 BUTLER ST APT 408,,,,,,
3459 BUTLER ST APT 409,,,,,,
3459 BUTLER ST APT 410,,,,,,
3459 BUTLER ST APT 411,,,,,,
3459 BUTLER ST APT 412,,,,,,
3459 BUTLER ST APT 413,,,,,,
3459 DENNY ST,,,,,,
3459 LIGONIER ST,,,,,,
346 39TH ST,,,,,,
346 42ND ST,,,,,,
346 45TH ST,,,,,,
346 MAIN ST,,,,,,
3460 LIGONIER ST,,,,,,
3460 PENN AVE,,,,,,
3462 LIGONIER ST,,,,,,
3463 BUTLER ST,,,,,,
3463 DENNY ST,,,,,,
3463 LIGONIER ST,,,,,,
3463 SPRING WAY,,,,,,
3464 LIGONIER ST,,,,,,
3464 PENN AVE,,,,,,
3465 LIGONIER ST,,,,,,
3466 PENN AVE,,,,,,
3467 DENNY ST,,,,,,
3467 LIGONIER ST,,,,,,
3468 1/2 LIGONIER ST,,,,,,
3468 LIGONIER ST,,,,,,
3468 PENN AVE,,,,,,
3469 DENNY ST,,,,,,
3469 LIGONIER ST,,,,,,
347 44TH ST,,,,,,
347 FISK ST,,,,,,
347 MAIN ST,Schifino Design,penn ave,,40.4666398,-79.95628459999999,consolidated
347 PAXTON PL,,,,,,
347 WINESAP DR,,,,,,
3470 LIGONIER ST,,,,,,
3471 1/2 DENNY ST,,,,,,
3471 DENNY ST,,,,,,
3471 LIGONIER ST,,,,,,
3472 LIGONIER ST,,,,,,
3473 BUTLER ST,,,,,,
3473 DENNY ST,,,,,,
3473 LIGONIER ST,,,,,,
3474 1/2 LIGONIER ST,,,,,,
3474 BUTLER ST,,,,,,
3474 LIGONIER ST,,,,,,
3475 1/2 DENNY ST,,,,,,
3475 DENNY ST,,,,,,
3476 LIGONIER ST,,,,,,
3477 DENNY ST,The Breadless Blonde,Penn Ave,,40.4633943,-79.9641868,broad_filled
3478 LIGONIER ST,,,,,,
3479 DENNY ST,,,,,,
348 39TH ST,,,,,,
348 42ND ST,,,,,,
348 44TH ST,,,,,,
348 45TH ST,,,,,,
348 MAIN ST,,,,,,
3480 BUTLER ST,,,,,,
3480 LIGONIER ST,,,,,,
3481 DENNY ST,,,,,,
3482 LIGONIER ST,,,,,,
3485 BUTLER ST,,,,,,
3485 BUTLER ST UNIT 100,,,,,,
3485 BUTLER ST UNIT 101,,,,,,
3485 BUTLER ST UNIT 102,,,,,,
3485 BUTLER ST UNIT 200,,,,,,
3485 BUTLER ST UNIT 201,,,,,,
3485 BUTLER ST UNIT 202,,,,,,
3485 BUTLER ST UNIT 203,,,,,,
3485 DENNY ST,,,,,,
3487 DENNY ST,,,,,,
3489 DENNY ST,,,,,,
349 39TH ST,,,,,,
349 44TH ST,,,,,,
349 FISK ST,,,,,,
349 MAIN ST,,,,,,
3491 DENNY ST,,,,,,
3493 DENNY ST,,,,,,
3495 BUTLER ST,,,,,,
"3495 Butler Street #101, Pittsburgh",Sherri Williams MSEd LPC NCC ~ TheLovingChoice,penn ave,,40.463984,-79.96646009999999,consolidated
3495 DENNY ST,,,,,,
3497 DENNY ST,,,,,,
3499 DENNY ST,,,,,,
35 MCCANDLESS AVE,,,,,,
350 42ND ST,,,,,,
350 45TH ST,,,,,,
350 MAIN ST,,,,,,
3500 HOWLEY ST,,,,,,
3500 HOWLEY ST APT 1,,,,,,
3500 HOWLEY ST APT 2,,,,,,
3500 HOWLEY ST APT 3,,,,,,
3500 LIBERTY AVE,,,,,,
3500 PENN AVE,"Four Pillars Paint, LLC",Penn Ave,5.0,40.4637925,-79.9650157,broad_filled
3501 BUTLER ST,KMA & Associates Inc,penn ave,5.0,40.464214,-79.966593,bounding_only
3501 BUTLER ST UNIT 1,,,,,,
3501 BUTLER ST UNIT 2A,,,,,,
3501 BUTLER ST UNIT 2B,,,,,,
3501 BUTLER ST UNIT 3A,,,,,,
3501 BUTLER ST UNIT 3B,,,,,,
3501 LEECH ST,,,,,,
3501 LIBERTY AVE,Byham House,Penn Ave,5.0,40.4619632,-79.9646154,broad_filled
3502 LEECH ST,,,,,,
3502 PENN AVE,,,,,,
3503 LEECH ST,,,,,,
3503 MULBERRY WAY,,,,,,
3504 CHARLOTTE ST,,,,,,
3504 HOWLEY ST,,,,,,
3504 HOWLEY ST APT 1,,,,,,
3504 HOWLEY ST APT 2,,,,,,
3504 HOWLEY ST APT 3,,,,,,
3504 LEECH ST,,,,,,
3504 PENN AVE,,,,,,
3504 SARDIS WAY,,,,,,
3505 BUTLER ST,Pulchra,penn ave,3.7,40.46422719999999,-79.96640459999999,consolidated
"3505 Butler Street #1314, Pittsburgh",Retired Senior Volunteer Program,penn ave,,40.4642281,-79.9664047,consolidated
3505 LEECH ST,,,,,,
3505 MULBERRY WAY,,,,,,
3505 PENN AVE,,,,,,
3506 CHARLOTTE ST,,,,,,
3506 LEECH ST,,,,,,
3506 PENN AVE,,,,,,
3507 BUTLER ST,,,,,,
3507 MULBERRY WAY,,,,,,
3508 BUTLER ST,Trim Pittsburgh,penn ave,4.7,40.46415399999999,-79.96598039999999,consolidated
3508 CHARLOTTE ST,,,,,,
3508 LEECH ST,,,,,,
3509 BUTLER ST,Informatics Studio Inc,penn ave,,40.464351,-79.9663659,consolidated
3509 LEECH ST,,,,,,
3509 MULBERRY WAY,,,,,,
3509 PENN AVE APT A,,,,,,
3509 PENN AVE APT B,,,,,,
3509 SARDIS WAY,,,,,,
3509 SMALLMAN ST,Salonika Imports,34th St,4.8,40.4647526,-79.96782309999999,broad_filled
351 39TH ST,,,,,,
351 44TH ST,,,,,,
351 FISK ST,,,,,,
351 MAIN ST,,,,,,
351 MANION WAY,,,,,,
351 WINESAP DR,,,,,,
3510 BUTLER ST,,,,,,
3510 CHARLOTTE ST,,,,,,
3510 LEECH ST,,,,,,
3510 PENN AVE,,,,,,
3510 SMALLMAN ST,,,,,,
3511 BUTLER ST,,,,,,
3511 LEECH ST,,,,,,
3511 MULBERRY WAY,,,,,,
3511 PENN AVE,,,,,,
3511 SARDIS WAY,,,,,,
3511 SARDIS WAY APT 1,,,,,,
3511 SARDIS WAY APT 2,,,,,,
3512 LEECH ST,,,,,,
3512 PENN AVE,,,,,,
3513 A BUTLER ST,,,,,,
3513 BUTLER ST,Asian Influences,penn ave,5.0,40.4644302,-79.9662797,bounding_only
"3513 Butler Street # 2, Pittsburgh",Krishna Ministry,penn ave,,40.4644379,-79.96627389999999,consolidated
3513 BUTLER ST APT 1,,,,,,
3513 BUTLER ST APT 2,,,,,,
3513 BUTLER ST APT 3,,,,,,
3513 LEECH ST,,,,,,
3513 PENN AVE,,,,,,
3513 SARDIS WAY,,,,,,
3514 BUTLER ST,,,,,,
3514 LEECH ST,,,,,,
3514 PENN AVE,,,,,,
3515 LEECH ST,,,,,,
3515 PENN AVE,,,,,,
3515 PENN AVE APT 1,,,,,,
3515 PENN AVE APT 2,,,,,,
3515 PENN AVE APT 3,,,,,,
3516 BUTLER ST,Manikre,penn ave,4.7,40.464374,-79.965853,consolidated
3516 LEECH ST,,,,,,
3516 PENN AVE,,,,,,
3516 SARDIS WAY,,,,,,
3517 BUTLER ST,,,,,,
3517 PENN AVE,,,,,,
3518 LEECH ST,,,,,,
3519 1/2 PENN AVE,,,,,,
3519 1/2 PENN AVE APT 201,,,,,,
3519 1/2 PENN AVE APT 301,,,,,,
3519 1/2 PENN AVE APT 401,,,,,,
3519 BUTLER ST,Morcilla,penn ave,4.7,40.4645709,-79.9661648,consolidated
